school,lat,lon
"Universiteit Leiden, Netherlands",52.15694046,4.48528004
,,
"Universidade da Beira Interior, Portugal",40.27727509,-7.50956011
"Cornell University, United States",42.45424271,-76.4813385
"National Institute of Technology, Rourkela, India",22.23213196,84.80312347
"University College London, United Kingdom",51.52381516,-0.1330597
"Peking University, China",39.99285126,116.3109436
"Tsinghua University, China",40.00598526,116.32681274
"University of California, Berkeley, United States",37.87189865,-122.25849915
"University of Maryland College Park, United States",38.98670959,-76.94740295
"Indiana University, United States",39.1717186,-86.50167084
"Technische Universiteit Eindhoven, Netherlands",51.44866943,5.48977423
"Aarhus University, Denmark",56.15522385,10.17289829
"Columbia University, United States",40.80732727,-73.96176147
"Universidad de Alcalá, Spain",40.48253632,-3.36115098
"Princeton University, United States",40.34233856,-74.65603638
"Université Catholique de Louvain, Belgium",50.66971207,4.61592197
"Université de Liège, Belgium",50.64086914,5.57614088
"Yerevan State University, Armenia",40.1815567,44.52635193
"Université de Paris, France",48.85689545,2.35084867
"Humboldt-Universität zu Berlin, Germany",52.53033066,13.38296795
"École Normale Supérieure, France",48.84167862,2.34479189
"Universidad Complutense de Madrid, Spain",40.4375,-3.72480512
"Université Libre de Bruxelles, Belgium",50.8117218,4.38108444
"New York University, United States",40.73889542,-73.97800446
"Comenius University, Slovakia",48.14122009,17.11594391
"Ghent University, Belgium",51.04679489,3.72761607
"Universität Duisburg-Essen, Germany",51.46399307,7.00558281
"Koç University, Turkey",41.20580673,29.07528114
"University of Alabama-Birmingham, United States",33.50111265,-86.80692495
"Hebrew University of Jerusalem, Israel",31.77344513,35.19736862
"Université Pierre-et-Marie-Curie - Paris VI, France",48.84722137,2.35638905
"University of Texas at Dallas, United States",32.9849205,-96.74929047
"The Johns Hopkins University, United States",39.32925415,-76.6212616
"University of Michigan, United States",42.27693939,-83.73806
"Universidad Católica del Norte, Chile",-31.76133728,-71.31877136
"North Carolina State University, United States",35.77954483,-78.67736053
"Tokyo Institute of Technology, Japan",35.68992615,139.6917572
"University of Reading, United Kingdom",51.44100952,-0.94264203
"Université Claude Bernard Lyon 1, France",45.78097916,4.86758995
"Yale University, United States",41.31506348,-72.9254837
"ETH Zürich, Switzerland",47.37641525,8.54810238
"Indian Institute of Technology, Mumbai, India",18.96904755,72.82118225
"Université Côte d'Azur, France",43.54456711,6.94885254
"Bilkent Universitesi, Turkey",39.86800003,32.74869919
"University of Birmingham, United Kingdom",52.4499321,-1.93152285
"Sungkyunkwan University, South Korea",37.58721924,126.99417114
"University of Durham, United Kingdom",54.76379013,-1.57382619
"City University of New York, United States",40.73889542,-73.97800446
"California Institute of Technology, United States",39.50357056,-99.01832581
"Rijksuniversiteit Groningen, Netherlands",53.19889832,5.79640007
"University of Wisconsin-Madison, United States",43.07184982,-89.40789032
"Mälardalens universitet, Sweden",59.61827087,16.54130936
"University of Warwick, United Kingdom",52.3807106,-1.56411386
"University of Aston, United Kingdom",52.48587799,-1.88898826
"Cardiff University, United Kingdom",51.49277496,-3.18504333
"The Pennsylvania State University, United States",40.80312347,-77.85286713
"University of Texas at Austin, United States",30.26497841,-97.74659729
"University of Arizona, United States",32.23290253,-110.95058441
"Rheinland-Pfälzische Technische Universität Kaiserslautern-Landau (RPTU), Germany",49.42457581,7.75441313
"Boston University, United States",42.35092545,-71.10968781
"University of Liverpool, United Kingdom",53.40552139,-2.96123624
"Universität Hamburg, Germany",53.56594086,9.98441029
"Tilburg University, Netherlands",51.56259918,5.04710007
"Massachusetts Institute of Technology, United States",42.17237473,-71.60503387
"École Polytechnique, France",48.71326828,2.21016502
"Universidade Federal da Paraíba, Brazil",-7.13048983,-34.86730957
"Institute of Mathematics, Polish Academy of Sciences, Poland",52.12467194,19.40042686
"University of Nevada, Las Vegas, United States",36.10682297,-115.14389038
"Scuola Internazionale Superiore di Studi Avanzati, Trieste, Italy",45.67995071,13.77573204
"Scuola Normale Superiore di Pisa, Italy",43.71943283,10.40013123
"Université de Franche-Comté, France",47.24055862,6.02292824
"Université de Besançon, France",47.24055862,6.02292824
"Université de Bourgogne, France",47.31236649,5.07192612
"Rensselaer Polytechnic Institute, United States",42.73215485,-73.67466736
"King's College London, United Kingdom",51.51166534,-0.116223
"Uniwersytet Warszawski, Poland",52.240242,21.01867676
"Université de Bordeaux, France",44.83499527,-0.57549518
"University College Dublin, Ireland",53.30679321,-6.22376823
"National University of Ireland, Galway, Ireland",53.29142795,-9.0730307
"University of Sydney, Australia",-33.88857269,151.18760681
"Imperial College London, United Kingdom",51.49881363,-0.17486399
"Linköpings Universitet, Sweden",59.67497253,14.52085876
"University of Melbourne, Australia",-37.79917908,144.9641571
"University of Cambridge, United Kingdom",52.21055984,0.08616186
"University of Glasgow, United Kingdom",55.8716507,-4.28842688
"Technische Universiteit Delft, Netherlands",51.99757767,4.3751502
"University of Science and Technology of China, China",17.90924644,77.51287079
"University of New South Wales, Australia",-32.89233398,151.70361328
"Beijing Normal University, China",39.95721817,116.36250305
"Université Paris-Saclay, France",48.71173477,2.17128873
"Institut Polytechnique de Paris, France",48.71173477,2.17128873
"Universiteit Twente, Netherlands",52.24247742,6.85363817
"Norges Teknisk-Naturvitenskapelige Universitet, Norway",63.42024612,10.38900566
"Purdue University, United States",40.42803192,-86.92464447
"Chalmers Tekniska Högskola, Sweden",57.68959045,11.97702217
"State University of New York at Buffalo, United States",42.8876915,-78.87937164
"Johann Wolfgang Goethe-Universität Frankfurt am Main, Germany",50.11824799,8.65140629
"Politecnico di Milano, Italy",45.47862625,9.22834015
"Katholieke Universiteit Leuven, Belgium",50.87796021,4.70026588
"University of Manchester, United Kingdom",53.46814728,-2.23413324
"Universidade Federal do Rio Grande do Sul, Brazil",-30.03355217,-51.21983337
"University of Belgrade, Serbia",44.81861115,20.45750046
"Vrije Universiteit Amsterdam, Netherlands",52.33430481,4.86319685
"University of Athens, Greece",37.96819687,23.77868462
"University of California, San Diego, United States",32.71575928,-117.16381836
"Vanderbilt University, United States",36.13861465,-86.80606842
"Bergische Universität Wuppertal, Germany",51.24480057,7.14910078
"Czechoslovak Academy of Science, Czechoslovakia",38.65811157,-90.26731873
"Emory University, United States",33.79809189,-84.3221283
"University of South Carolina, United States",33.98880005,-81.02112579
"University of Illinois at Urbana-Champaign, United States",40.11251831,-88.22888184
"University of the Western Cape, South Africa",-33.93223572,18.62994003
"University of Patras, Greece",38.24621582,21.73506927
"University of London, United Kingdom",51.42471313,-0.56266898
"Queen's University at Kingston, Canada",44.22609711,-76.4959259
"University of Central Florida, United States",28.61787415,-81.2062912
"University of California, Irvine, United States",33.64204407,-117.83917999
"Indian Statistical Institute, Kolkata, India",22.56557274,88.37021637
"Carl-von-Ossietzky-Universität Oldenburg, Germany",53.14778137,8.18222046
"Universiteit van Amsterdam, Netherlands",52.36854172,4.89021587
"Carnegie Mellon University, United States",40.44292831,-79.94275665
"Stanford University, United States",37.42795563,-122.17184448
"Arizona State University, United States",33.42100143,-111.93299866
"University of Cincinnati, United States",39.14841286,-84.47633056
"Beijing Jiaotong University, China",39.95009995,116.33709717
"National University of Singapore, Singapore",1.29583895,103.77718353
"Loughborough University, United Kingdom",52.76319122,-1.23695493
"University of Adelaide, Australia",-34.91899872,138.60440063
"University of New Orleans, United States",29.95176315,-90.07461548
"National Research University – Higher School of Economics, Russia",61.66702652,99.09856415
"Università degli Studi di Udine, Italy",46.06655502,13.23282719
"University of Florida, United States",29.6414299,-82.35647583
"University of Bristol, United Kingdom",51.45796585,-2.60253167
"Ruprecht-Karls-Universität Heidelberg, Germany",49.41784668,8.66932392
"National University of Computer and Emerging Sciences, Pakistan",29.39997482,68.81533813
"Ludwig-Maximilians-Universität München, Germany",48.1504097,11.5804739
"Università degli Studi di Milano, Italy",45.46121216,9.18655968
"Université de Fribourg, Switzerland",46.80429459,7.15239191
"Queensland University of Technology, Australia",-27.5535821,153.0514951
"Tezpur University, India",26.70070267,92.83067322
"Tribhuvan University, Nepal",27.6818409,85.28646088
"Universität Passau, Germany",48.56830215,13.45322132
"University of Hawaii, United States",19.61087036,-155.52742004
"Stockholm University, Sweden",59.36611176,18.0601387
"Université de Cergy-Pontoise, France",49.03876114,2.07502151
"University of Szeged, Hungary",46.25361633,20.14613533
"Institut National Polytechnique de Toulouse, France",43.6039505,1.44450903
"Harvard University, United States",42.37420273,-71.11627197
"Florida International University, United States",25.75699997,-80.37400055
"Worcester Polytechnic Institute, United States",42.27412033,-71.80857849
"Duke University, United States",35.99642563,-78.91738129
"Technische Universität Wien, Austria",48.19601059,16.37068176
"University of Illinois at Chicago, United States",41.87002945,-87.66072845
"Universidad de Cantabria, Spain",43.47297668,-3.80134296
"Københavns Universitet, Denmark",55.67933655,12.57098198
"University of Southampton, United Kingdom",50.93541718,-1.39650559
"Universität Bayreuth, Germany",49.92844391,11.58514881
"Queen's University of Belfast, United Kingdom",54.58424377,-5.93373108
"The University of Edinburgh, United Kingdom",55.94381714,-3.18808675
"Karlsruher Institut für Technologie (KIT), Germany",49.00944519,8.41161156
"Alexandru Ioan Cuza University of Iasi, Romania",47.17467499,27.57160187
"Université de Béjaïa, Algeria",36.75117874,5.06436872
"Université Mouloud Mammeri de Tizi Ouzou, Algeria",36.69789505,4.05787277
"Universidade Federal de São Carlos, Brazil",-21.98319435,-47.88167572
"Lancaster University, United Kingdom",54.00923157,-2.78688049
"Politechnika Śląska, Poland",50.29020309,18.67538643
"Christian-Albrechts-Universität zu Kiel, Germany",54.33889008,10.12250042
"Heriot-Watt University, United Kingdom",55.91089249,-3.32290792
"Institute of Mathematics of National Academy of Sciences of Ukraine, Ukraine",38.89300537,-77.04775238
"Universidade de São Paulo, Brazil",-22.0000515,-47.93125916
"University of Limerick, Ireland",52.67974472,-8.57145119
"Korea University, South Korea",37.58800507,127.03640747
"Ecole Centrale de Nantes, France",47.24908066,-1.54831004
"Technische Universität München, Germany",48.14954758,11.56776524
"Western Michigan University, United States",42.28295135,-85.61138153
"Sharif University of Technology, Iran",32.6475296,54.56435013
"Universität Zürich, Switzerland",47.37472153,8.54833031
"Lebedev Institute of Physics, Russia",61.66702652,99.09856415
"Moscow Institute of Physics and Technology, Russia",61.66702652,99.09856415
"Université de Nantes, France",47.24000168,-1.54999995
"Université de Technologie de Compiègne, France",49.41500854,2.8177731
"Indian Institute of Technology Gandhinagar, India",23.22334671,72.64770508
"Victoria University of Wellington, New Zealand",-41.28430557,174.77027893
"Università degli Studi di Firenze, Italy",43.77773285,11.26099205
"University of West Bohemia, Pilsen, Czech Republic",29.71598053,-95.42884064
"Middle East Technical University, Turkey",39.88980103,32.78010178
"Florida State University, United States",30.44245338,-84.29992676
"Universität der Bundeswehr Hamburg, Germany",53.56777954,10.1072197
"McGill University, Canada",45.50649643,-73.5798645
"Moscow State University of Civil Engineering, Russia",55.70284653,37.53059387
"Polytechnic Institute of New York University, United States",40.73889542,-73.97800446
"Brown University, United States",41.82819366,-71.39990234
"Scuola Internazionale Superiore di Studi Avanzati (SISSA), Italy",44.96033478,10.26174068
"Universidad del País Vasco, Spain",43.33140564,-2.97060585
"University of Oxford, United Kingdom",51.76114655,-1.25338602
"Indian Institute of Science, Bangalore, India",12.97674656,77.57527924
"Universität Straßburg, Germany",49.55243301,8.84981728
"University of Monastir, Tunisia",35.77075958,10.82805157
"Macquarie University, Australia",-33.77458954,151.11288452
"Uniwersytet Marii Curie-Skłodowskiej, Poland",51.24555969,22.54055977
"Université Paul Valéry Montpellier 3, France",46.62480927,2.45837402
"Nagoya University, Japan",35.15472031,136.9669342
"Universität Ulm, Germany",48.4250412,9.96333027
"Tarbiat Modares University, Iran",35.72111511,51.3816185
"University of Utah, United States",40.76153183,-111.83558655
"University of California, Los Angeles, United States",33.9970932,-117.83753967
"Université de Montpellier, France",43.59859467,3.89217401
"Oxford Brookes University, United Kingdom",51.75487137,-1.22427547
"University of Leeds, United Kingdom",53.80628967,-1.55621433
"Oklahoma State University, United States",36.1275444,-97.07408905
"Concordia University, Canada",45.49694061,-73.57805634
"University of Pennsylvania, United States",39.951931,-75.19461823
"Universitat Politècnica de Catalunya, Catalonia",41.3878746,2.11465192
"Swansea University, United Kingdom",51.60929108,-3.97966409
"National Tsing Hua University, Taiwan",24.79457092,120.99420929
"Universität Basel, Switzerland",47.55910873,7.5835371
"Calcutta University, India",22.57647514,88.36180878
"Korea Advanced Institute of Science and Technology (KAIST), South Korea",36.37200165,127.36299896
"Rice University, United States",29.71723175,-95.40277863
"Instytut Podstawowych Problemów Techniki PAN, Poland",52.12467194,19.40042686
"University of Sussex, United Kingdom",50.86527634,-0.08555555
"The Open University, United Kingdom",52.0245285,-0.70932323
"Otto-von-Guericke-Universität Magdeburg, Germany",52.13999939,11.64299965
"Universiteit Utrecht, Netherlands",52.08597565,5.17484617
"Charles University, Czech Republic",50.08840179,14.40369987
"Université Saint-Joseph de Beyrouth, Lebanon",33.89126968,35.50880814
"Huazhong University of Science and Technology, China",36.55937195,103.7533493
"University of Georgia, United States",31.57870674,-84.15026855
"Université de Rennes 1, France",48.11556244,-1.63702893
"Institute for System Programming of the Russian Academy of Sciences, Russia",61.66702652,99.09856415
"Czech Technical University in Prague, Czech Republic",50.10167694,14.38971043
"University of Bath, United Kingdom",51.37783432,-2.32540011
"Universitat Autònoma de Barcelona, Catalonia",41.50213242,2.10281491
"Rutgers University, New Brunswick, United States",40.48786926,-74.43978882
"Atatürk Üniversitesi, Turkey",39.9029007,41.25283813
"Lund University, Sweden",55.70293045,13.19294453
"University of Sarajevo, Bosnia Herzegovina",43.85818481,18.41234207
"University of Lethbridge, Canada",49.67614746,-112.86553192
"Université de Lyon, France",45.74814987,4.85235214
"University of Toronto, Canada",43.66167068,-79.39499664
"École Polytechnique Fédérale de Lausanne, Switzerland",46.51909256,6.56671047
"Brandeis University, United States",42.36603546,-71.25879669
"Erasmus Universiteit Rotterdam, Netherlands",51.91727829,4.52602386
"Landbouwuniversiteit Wageningen, Netherlands",51.96643448,5.65831041
"Université Paris IV-Sorbonne, France",48.84828949,2.34287238
"Universitat de Barcelona, Catalonia",41.38586044,2.16435742
"University of Waterloo, Canada",43.4703331,-80.54592133
"The University of Chicago, United States",41.8832283,-87.63240051
"Georg-August-Universität Göttingen, Germany",51.54383087,9.94176483
"Universität Berlin, Germany",52.52342987,13.41143608
"Kyoto University, Japan",35.0232048,135.78443909
"Lanzhou University, China",36.04998016,103.85655975
"University of British Columbia, Canada",49.25802612,-123.24305725
"Philipps-Universität Marburg, Germany",50.81082916,8.77361012
"Ben-Gurion University of the Negev, Israel",30.5,34.91666794
"Poznań University of Technology, Poland",52.40832901,16.93361092
"Shanghai Jiao Tong University, China",31.02544022,121.43630219
"Università del Salento, Italy",40.35805893,18.16472054
"Texas Tech University, United States",33.59065628,-101.8899231
"University of Newcastle upon Tyne, United Kingdom",54.9807174,-1.6141609
"Universiteit Stellenbosch, South Africa",-33.93243027,18.86763763
"Universität Bern, Switzerland",46.95051956,7.43810892
"Université de Mons, Belgium",50.45911407,3.95019102
"Université Nazi Boni, Burkina Faso",11.20943832,-4.41748428
"Universidad Nacional de La Plata, Argentina",-34.91296768,-57.95135498
"University of Hong Kong, HongKong",22.28417015,114.13777924
"Radboud Universiteit Nijmegen, Netherlands",51.8192482,5.86179781
"Georgia Institute of Technology, United States",32.64828873,-83.44437408
"Universidad Autónoma de Barcelona, Spain",41.50083542,2.10487604
"China University of Mining and Technology, China",31.31082916,120.63555908
"Northwestern University, United States",42.05439377,-87.69577789
"Pontificia Universidad Católica de Chile, Chile",-33.44179916,-70.64041138
"Technische Universität Graz, Austria",47.06915665,15.45024967
"University of the Basque Country, Spain",43.04308701,-2.61698508
"University of Massachusetts Amherst, United States",42.38521194,-72.52532196
"University of Rhode Island, United States",41.6282959,-71.51880646
"Aalto-yliopisto, Finland",60.18643951,24.82733917
"Martin-Luther-Universität Halle-Wittenberg, Germany",51.48625565,11.96957874
"Centro de Investigación en Matemáticas, CIMAT, Mexico",21.04223442,-101.26084137
"Drexel University, United States",39.95612335,-75.18766022
"Colorado State University, United States",40.57263565,-105.0865097
"University of Windsor, Canada",42.30358124,-83.064888
"University of York, United Kingdom",53.94727707,-1.0463835
"Nanyang Technological University, Singapore",1.34791696,103.68371582
"University of Tennessee - Knoxville, United States",35.95282364,-83.94454193
"Wright State University, United States",39.78499985,-84.05899811
"Monash University, Australia",-37.87680054,145.04402161
"University of Minnesota - Twin Cities, United States",44.95000076,-93.19999695
"Iran University of Science and Technology, Iran",32.6475296,54.56435013
"University of Nottingham, United Kingdom",52.93941116,-1.19878376
"Universidade Federal do Ceará, Brazil",-3.78331995,-38.58890152
"Royal Melbourne Institute of Technology, Australia",-25.72804832,134.49017334
"Umeå University, Sweden",63.8207283,20.30728722
"University of Newcastle, Australia",-32.89233398,151.70361328
"École Centrale de Lille, France",50.6060791,3.13721061
"Pädagogische Hochschule Freiburg, Germany",47.9813652,7.89381886
"Jadavpur University, India",22.4994278,88.37162018
"Indian Institute of Technology, Kharagpur, India",22.33023834,87.32365417
"Northeastern University, United States",42.33895874,-71.0887146
"Justus-Liebig-Universität Gießen, Germany",50.57678223,8.66331863
"Università di Genova, Italy",44.41500092,8.92580032
"Université Aix-Marseille, France",43.29352188,5.35791683
"Universiteit Antwerpen, Belgium",51.22277832,4.40999985
"Universidad Politécnica de Madrid, Spain",40.44919968,-3.72810006
"Instituto Tecnológico de Aeronáutica, Brazil",-23.2101326,-45.87678146
"Tampereen teknillinen yliopisto, Finland",61.44980621,23.85994911
"Tampereen yliopisto, Finland",63.10306931,21.59251022
"Technische Universität Carolo-Wilhelmina zu Braunschweig, Germany",52.27335739,10.53064251
"Jyväskylän yliopisto, Finland",63.10538127,21.59521945
"Universidad de Granada, Spain",37.18422699,-3.60056472
"Sardar Patel University, India",22.55500031,72.92500305
"Georgia State University, United States",33.75276566,-84.38607788
"Niigata University, Japan",37.86693954,138.94250488
"Sorbonne Université, France",48.84864044,2.34364295
"University of Hyderabad, India",17.45872116,78.32565308
"Université Laval, Canada",46.78181076,-71.27400208
"University of Tokyo, Japan",35.70811462,139.76745605
"University of Washington, United States",38.64799881,-90.30500031
"Osaka University, Japan",34.81727219,135.52645874
"Indian Institute of Management, Ahmedabad, India",23.0145092,72.59175873
"Technische Universität Dortmund, Germany",51.48391342,7.4129591
"University of Southern California, United States",34.02149582,-118.28678894
"Universidade de Brasília, Brazil",-15.84489822,-48.09970093
"Universiteit Maastricht, Netherlands",50.84651947,5.68656015
"Visvesvaraya National Institute of Technology, Nagpur, India",21.15261841,79.0881958
"Universidad Autónoma Metropolitana-Iztapalapa, Mexico",19.36218071,-99.07270813
"Fuzhou University, China",26.05846024,119.20365906
"Université d'Angers, France",47.47999954,-0.60139
"University of Oregon, United States",44.04432297,-123.07236481
"Suranaree University of Technology, Thailand",13.71413025,100.5364876
"Universidad de Santiago de Chile, Chile",-33.44933701,-70.68228149
"Université de Strasbourg, France",48.5802803,7.76444006
"Technische Universität Dresden, Germany",51.02806091,13.72667027
"Université Joseph Fourier Grenoble I, France",45.19166946,5.77297783
"University of Ljubljana, Slovenia",46.04917526,14.50419712
"St. Petersburg State Polytechnic University, Russia",61.66702652,99.09856415
"The Hong Kong Polytechnic University, HongKong",22.30500031,114.18000031
"Iowa State University, United States",42.01955795,-93.64385223
"Universität Bielefeld, Germany",52.03765869,8.49361134
"Nyenrode Business Universiteit, Netherlands",52.16321945,5.00897217
"Sabanci University, Turkey",40.89054871,29.37838554
"Université d'Orléans, France",47.8440094,1.92647171
"West University of Timisoara, Romania",45.75097656,21.2261982
"Indian Institute of Technology, Madras, India",13.07209206,80.20185852
"Washington State University, United States",46.73244476,-117.15100861
"Michigan State University, United States",42.7019043,-84.48150635
"Tufts University, United States",42.40488052,-71.11522675
"State University of New York at Stony Brook, United States",40.92568588,-73.14112854
"Paris Sciences et Lettres, France",48.85466766,2.33780599
"Centre national de la recherche scientifique, France",46.62480927,2.45837402
"Università degli Studi di Genova, Italy",44.41500092,8.92580032
"University of Jordan, Jordan",31.16670418,36.9416275
"Université Paul Sabatier - Toulouse III, France",43.56315613,1.46283925
"Rheinische Friedrich-Wilhelms-Universität Bonn, Germany",50.73370361,7.10256767
"Vasyl Karazin Kharkiv National University, Ukraine",49.98594666,36.2735405
"University of California, Santa Barbara, United States",34.42086792,-119.69834137
"Indian Institute of Technology, Roorkee, India",29.85297203,77.87545013
"Transilvania University of Brasov, Romania",45.64949036,25.60655022
"Johannes Gutenberg-Universität Mainz, Germany",49.99201202,8.23829174
"McMaster University, Canada",43.26299667,-79.91837311
"Ruhr-Universität Bochum, Germany",51.44473648,7.26183701
"Universität Stuttgart, Germany",48.74583435,9.10542107
"College of William and Mary, United States",37.27094269,-76.71639252
"Universität Trier, Germany",49.74645233,6.68651581
"Università di Torino, Italy",45.06937408,7.68892479
"Kungliga Tekniska Högskolan, Sweden",59.34998703,18.06982613
"Dartmouth College, United States",43.71815872,-72.26668549
"West Virginia University, United States",39.65337372,-79.95722198
"Czech Academy of Sciences, Czech Republic",49.73923874,15.3317976
"University of Maryland Baltimore County, United States",39.25567245,-76.70980835
"National Yang Ming Chiao Tung University, Taiwan",24.79586029,120.9847641
"Bowling Green State University, United States",41.37999725,-83.62976074
"Chinese Academy of Sciences, China",36.55937195,103.7533493
"Institute of Mathematics and Mechanics, Russian Academy of Sciences Ural Branch, Russia",38.76935577,-77.43644714
"University of New Brunswick, Canada",45.94532776,-66.64100647
"Ryerson University, Canada",43.65817642,-79.37832642
"New Jersey Institute of Technology, United States",40.34996796,-74.64857483
"Queen Mary, University of London, United Kingdom",51.41877775,-0.10312625
"Centro de Investigación y de Estudios Avanzados del Instituto Politécnico Nacional (CINVESTAV-IPN), Mexico",19.50056076,-99.1397171
"Universidad Nacional Autónoma de México, Mexico",19.23480034,-99.58860016
"University of Montana, United States",46.8611908,-113.9845047
"Universidad Autónoma de Madrid, Spain",40.54551315,-3.69421601
"Universidad de Salamanca, Spain",40.96622467,-5.67794704
"Freie Universität Berlin, Germany",52.4479332,13.28576183
"Rheinisch-Westfälische Technische Hochschule Aachen, Germany",50.77873611,6.07741499
"St. Petersburg State University, Russia",59.94166183,30.30098724
"Université Paris-Sud XI - Orsay, France",48.69900894,2.18785906
"Virginia Commonwealth University, United States",37.54962158,-77.44757843
"Instituto de Matemática y Ciencias Afines, Peru",-6.86996984,-75.04585266
"University of California, Davis, United States",38.54672623,-121.74433899
"Texas A&M University, United States",30.61027908,-96.34361267
"Technische Universität Berlin, Germany",52.51258087,13.32678032
"University of South Florida, United States",28.07368851,-82.40822601
"Friedrich-Alexander-Universität Erlangen-Nürnberg, Germany",49.60218048,11.01177406
"Université Sorbonne Paris Nord, France",48.9562149,2.34193301
"University of California, Riverside, United States",33.97768402,-117.32817841
"University of Alberta, Canada",53.52326965,-113.52503967
"Islamic Azad University, Iran",34.84386444,48.56145859
"Université du Québec à Montréal, Canada",45.51388931,-73.56027985
"Universidade Nova de Lisboa, Portugal",38.73181152,-9.15999603
"The University of Iowa, United States",41.66213608,-91.55791473
"Universidad de Antioquia, Colombia",6.26759291,-75.56885529
"Aix-Marseille Université, France",43.29352188,5.35791683
"Universität Wien, Austria",48.21300888,16.36086082
"University of Pittsburgh, United States",40.44416428,-79.95941925
"Uniwersytet Jagielloński, Poland",50.06082916,19.93277931
"Nanjing University of Aeronautics and Astronautics, China",32.05611038,118.77500153
"Universidade Europeia, Portugal",39.68219757,-7.96828794
"Politechnika Warszawska, Poland",52.22124481,21.00768089
"University of Westminster, London, United Kingdom",51.4773407,-0.26651415
"Eurasian National University, Kazakhstan",48.10129547,66.7780838
"State University of New York at Albany, United States",42.65172577,-73.75509644
"Universidad Autónoma de Aguascalientes, Mexico",21.91521645,-102.31822205
"University of the Witwatersrand, South Africa",-26.19293594,28.02677917
"Lomonosov Moscow State University, Russia",55.70284653,37.53059387
"Université Bourgogne Franche-Comté, France",47.19179916,5.0229001
"Université de Lille, France",50.63166046,3.07300949
"Moscow Power Engineering Institute, Russia",55.7559166,37.70923233
"Technical University, Sofia, Bulgaria",42.65721893,23.3555603
"Université Grenoble Alpes, France",45.19034958,5.76713133
"Université Paris Diderot - Paris 7, France",48.82972336,2.38083291
"University of Virginia, United States",38.03258514,-78.51531219
"University of Aberdeen, United Kingdom",57.16480255,-2.10205007
"Turun yliopisto, Finland",60.45627975,22.28525734
"University of Colorado at Boulder, United States",40.00742722,-105.26633453
"University Abdelhamid Ibn Badis of Mostaganem, Algeria",35.9288063,0.089978
"Université de Guelma, Algeria",36.46508408,7.4306469
"Université de La Rochelle, France",46.14778137,-1.15499997
"Universidad de Extremadura, Spain",39.19132614,-6.15089703
"Washington University in St. Louis, United States",38.64310074,-90.31230927
"Auburn University, United States",32.60628891,-85.47301483
"City University of Hong Kong, HongKong",22.28417015,114.13777924
"University of New Hampshire, United States",42.7785202,-71.5143457
"Universidad de Buenos Aires, Argentina",-34.600811,-58.40837479
"Università di Roma La Sapienza, Italy",41.9032135,12.51540089
"University of Western Australia, Australia",-34.06919861,150.79011536
"Leningrad State University, Russia",59.94166183,30.30098724
"Tata Institute of Fundamental Research, India",22.35250854,79.36368561
"Universität Mannheim, Germany",49.48339844,8.46297741
"Technical University of Denmark, Denmark",55.78531265,12.52049255
"Louisiana State University, United States",30.41377068,-91.16902161
"Albert-Ludwigs-Universität Freiburg im Breisgau, Germany",47.99417114,7.84694004
"The University of North Carolina at Chapel Hill, United States",35.90575027,-79.04873657
"Universiti Teknologi Malaysia, Malaysia",1.55970395,103.63807678
"University of South Australia, Australia",-34.91899872,138.60440063
"Universidade do Porto, Portugal",41.1466713,-8.61555958
"La Trobe University, Australia",-37.7223587,145.0483551
"Odesa University, Ukraine",46.48749924,30.73119926
"University of Western Ontario, Canada",42.99670029,-81.2736969
"University of Ottawa, Canada",45.38989805,-75.69382382
"Instituto Tecnológico y de Estudios Superiores de Occidente (ITESO), Mexico",20.60739708,-103.41496277
"Technische Universität Chemnitz, Germany",50.81576538,12.93005943
"Moscow Aviation Institute, Russia",55.81084824,37.50108719
"Institute for Parallel Processing, Bulgarian Academy of Sciences, Bulgaria",42.75815964,25.23507118
"Universidade Federal de Minas Gerais, Brazil",-19.91864014,-43.93569183
"Aalborg Universitet, Denmark",57.01528549,9.97899532
"Ivan Franko National University of Lviv, Ukraine",49.84018326,24.0222435
"Institute of Infrastructure Technology Research and Management (IITRAM), Ahmedabad, India",23.00416946,72.62194061
"Ulsan National Institute of Science and Technology, South Korea",35.54867554,129.31500244
"University of Canterbury, New Zealand",-43.52354431,172.58049011
"University of California, Santa Cruz, United States",36.97414017,-122.02880096
"University of Limpopo, South Africa",-23.88768959,29.73880577
"Télécom ParisTech, France",48.83514786,2.3607831
"Kent State University, United States",41.14638138,-81.34170532
"Universidade de Lisboa, Portugal",38.75367737,-9.15851593
"Southern University of Science and Technology, China",36.55937195,103.7533493
"Universidade Federal do Pará, Brazil",-1.46916485,-48.4473381
"University of Toledo, United States",41.65777206,-83.61348724
"Université de Caen Normandie, France",49.19060135,-0.3644
"University of Victoria, Canada",43.66693878,-79.39193726
"Mongolian National University of Education, Mongolia",46.83492661,103.06755066
"Virginia Polytechnic Institute and State University, United States",37.21538162,-80.42939758
"Universität Leipzig, Germany",51.33915329,12.37904644
"Steklov Institute of Mathematics, Russia",61.66702652,99.09856415
"University of Zanjan, Iran",36.68362808,48.39945602
"Sahand University of Technology, Iran",32.6475296,54.56435013
"Shanghai University, China",31.31833076,121.38722229
"George Mason University, United States",38.83257294,-77.2997818
"Université Mohamed Premier, Oujda, Morocco",34.67787552,-1.92930603
"Instituto Politécnico Nacional, Mexico",19.50056076,-99.1397171
"University of Rochester, United States",43.11229324,-77.62974548
"University of Delaware, United States",39.66525269,-75.74617004
"Oregon State University, United States",44.56346512,-123.28255463
"Fudan University, China",31.29888916,121.4991684
"Vrije Universiteit Brussel, Belgium",50.82289505,4.39537907
"Universidade de Aveiro, Portugal",40.63082123,-8.65773296
"Università di Pisa, Italy",43.72172165,10.39568233
"University of Delhi, India",28.69000053,77.20999908
"Indian Institute of Science Education and Research Mohali, India",30.69000053,76.72000122
"Hong Kong University of Science and Technology, HongKong",22.28417015,114.13777924
"Technische Universität Darmstadt, Germany",49.87584305,8.65664577
"University of Houston, United States",29.71892166,-95.33916473
"University of Essex, United Kingdom",51.87718964,0.9486863
"Yonsei University, South Korea",37.56204224,126.94047546
"Technische Hochschule Magdeburg, Germany",52.14149857,11.67700386
"Universität der Bundeswehr München, Germany",48.0774765,11.63527012
"University of Sheffield, United Kingdom",53.38221359,-1.46700859
"The George Washington University, United States",38.89921951,-77.04801178
"Jackson State University, United States",32.29679489,-90.20748138
"University of Notre Dame, United States",41.70300293,-86.2354126
"Johannes Kepler Universität Linz, Austria",48.33768463,14.32191944
"Universidad Nacional de Ingenieria, Peru",-12.02009392,-77.04833984
"Université de Montréal, Canada",45.50572586,-73.61325836
"Ocean University of China, China",36.16487885,120.49497223
"Georgetown University, United States",38.90904236,-77.0747757
"National Institute of Science Education and Research, India",22.35250854,79.36368561
"Capital Normal University, China",39.9294014,116.3003006
"Politechnika Wrocławska, Poland",51.10856247,17.06049728
"University of Nevada, Reno, United States",39.54508209,-119.81563568
"University of Bridgeport, United States",41.16634748,-73.1858907
"Universität Konstanz, Germany",47.69033432,9.18829441
"University of Crete, Greece",35.33169937,24.78852081
"Universidade Estadual de Campinas, Brazil",-22.8172226,-47.06944275
"Universidade Federal de Pernambuco, Recife, Brazil",-8.05202579,-34.95070267
"Université de Neuchâtel, Switzerland",46.99372864,6.93854713
"University of Colorado at Denver, United States",39.67484665,-104.96642303
"The Ohio State University, United States",40.01520538,-83.03659821
"Glasgow Caledonian University, Scotland",55.86701584,-4.25021935
"Seoul National University, South Korea",37.45999908,126.95249939
"École Normale Supérieure de Lyon, France",45.73199844,4.83338022
"Eberhard-Karls-Universität Tübingen, Germany",48.52544785,9.06171322
"University of Connecticut, United States",41.57515335,-72.73828125
"Yuriy Fedkovych Chernivtsi National University, Ukraine",48.31963348,25.94147873
"Aligarh Muslim University, India",27.9145298,78.07752991
"Universidad Nacional de Colombia, Colombia",4.6378231,-74.08472443
"Indian Institute of Technology Guwahati, India",26.14316368,91.65942383
"Tohoku University, Japan",38.25416946,140.87361145
"L.N.Gumilyov Eurasian National University, Kazakhstan",51.15663147,71.46907043
"Sichuan University, China",30.55521393,104.0070343
"University of California, Merced, United States",37.36417007,-120.42736053
"Masaryk University, Czech Republic",49.19863129,16.60544014
"Sam Houston State University, United States",30.7136898,-95.54816437
"Pontifícia Universidade Católica do Rio de Janeiro, Brazil",-22.97930336,-43.23289108
"Florida Atlantic University, United States",26.37324524,-80.1014328
"Montana State University, United States",45.66402054,-111.05033112
"Universidade Federal do ABC, Brazil",-23.67751884,-46.56425858
"University of Chinese Academy of Sciences, China",36.55937195,103.7533493
"Universität zu Köln, Germany",50.92629623,6.92934513
"King Abdullah University of Science and Technology, Saudi Arabia",22.30910683,39.10409927
"Imam Khomeini International University, Iran",36.32162857,50.00828552
"University of the Punjab, Pakistan",31.29277992,74.17472076
"University of Sofia, Bulgaria",42.69412231,23.33545113
"Friedrich-Schiller-Universität Jena, Germany",50.9284668,11.5822897
"Indian Institute of Technology Bhubaneswar, India",20.27000046,85.83999634
"Uniwersytet Wrocławski, Poland",51.11327744,17.03605461
"University of Leicester, United Kingdom",52.6213913,-1.12443995
"Shirshov Institute of Oceanology, Russia",61.66702652,99.09856415
"Northern Illinois University, United States",41.93696213,-88.77380371
"Illinois Institute of Technology, United States",40.12414551,-89.14863586
"Thapar University, India",30.35450554,76.36605835
"University of Tabriz, Iran",38.05491638,46.33175659
"University of Isfahan, Iran",32.60663605,51.65917206
"Southern Methodist University, United States",32.84128571,-96.78392792
"Indian Institute of Science, India",22.35250854,79.36368561
"Carleton University, Canada",45.38622665,-75.69624329
"Universitat Politècnica de València, Spain",39.48099518,-0.34154901
"Universität Innsbruck, Austria",47.26332855,11.3844471
"Universidad de Chile, Chile",-33.44393921,-70.65101624
"Indian Institute of Technology, Kanpur, India",26.51080132,80.23273468
"King Fahd University of Petroleum and Minerals, Saudi Arabia",24.12627983,44.54819489
"Shanghai University of Finance and Economics, China",31.31833076,121.38722229
"University of Missouri - Columbia, United States",38.94531631,-92.32906342
"The Catholic University of America, United States",38.93259811,-76.99782562
"Hanyang University, South Korea",37.55638885,127.04444122
"Temple University, United States",39.98091888,-75.15603638
"York University, Canada",43.77370453,-79.50328064
"Quaid-i-Azam University, Pakistan",33.74721909,73.13889313
"Baylor University, United States",31.54874039,-97.11448669
"Stevens Institute of Technology, United States",40.74468994,-74.0255127
"Fernuniversität Hagen, Germany",51.37729645,7.49413919
"Universidade Federal de Alagoas, Brazil",-9.66203976,-35.73516083
"Universität Augsburg, Germany",48.33388901,10.89832973
"Montclair State University, United States",40.85905457,-74.19860077
"Old Dominion University, United States",36.88533783,-76.30651093
"Middle Tennessee State University, United States",35.84851074,-86.36239624
"Xiamen University, China",36.55937195,103.7533493
"Boğaziçi University, Turkey",41.08409882,29.05500031
"l’Université Ouaga 1 Professeur Ki-Zerbo, Burkina Faso",12.37032305,-1.5131261
"Universitetet i Stavanger, Norway",58.93770981,5.69376659
"Kanazawa University, Japan",36.5625,136.65611267
"Universitatea din Oradea, Romania",47.04521179,21.92077255
"Université Cadi Ayyad, Marrakech, Morocco",31.62582588,-7.98916101
"Simon Fraser University, Canada",49.2771492,-122.91783142
"Chulalongkorn University, Thailand",13.73837376,100.53166962
"Naresuan University, Thailand",16.74853516,100.18943024
"University of Mississippi, United States",34.36377335,-89.53578186
"CentraleSupélec, France",48.71025085,2.1605711
"Australian National University, Australia",-35.28019333,149.11767578
"Indian Institute of Technology Delhi, India",28.64339066,77.11547852
"University of Malaya, Malaysia",3.12083006,101.65638733
"Wirtschaftsuniversität Wien, Austria",48.21357346,16.40832138
"Universität Kassel, Germany",51.32188416,9.50585079
"Heinrich-Heine-Universität Düsseldorf, Germany",51.18841934,6.79547024
"University of Tehran, Iran",35.70526886,51.39828873
"City, University of London, United Kingdom",51.52771378,-0.10285528
"University of Wisconsin-Milwaukee, United States",43.04107285,-87.90942383
"University of Kentucky, United States",38.0270195,-84.50534058
"University of Regina, Canada",50.41620255,-104.5901947
"Eötvös Loránd University, Hungary",47.4904213,19.05844498
"Universidade Estadual de Maringa, Brazil",-23.40509033,-51.93991089
"Syracuse University, United States",43.03820419,-76.13464355
"Università di Bologna, Italy",44.49643326,11.3531332
"Central European University, Hungary",47.50093079,19.05029488
"Al-Farabi Kazakh National University, Kazakhstan",43.22145462,76.92286682
"Université de Picardie Jules Verne, France",49.87680054,2.26460004
"University of St. Andrews, United Kingdom",56.34121323,-2.79301119
"Universidad de Guadalajara, Mexico",20.67472839,-103.35904694
"Göteborgs universitet, Sweden",57.6985321,11.97134209
"Université de Genève, Switzerland",46.20111084,6.14277983
"Zhejiang University, China",29.17010498,120.07197571
"Missouri University of Science and Technology, United States",38.94531631,-92.32906342
"Wuhan University, China",30.53785706,114.36502838
"Obuda University, Hungary",47.53377914,19.03493118
"Università degli Studi di Napoli Federico II , Italy",40.84230042,14.25627899
"Universidad de Sevilla, Spain",37.38072968,-5.99075508
"Universidad Autónoma del Estado de México, Mexico",19.28425407,-99.67805481
"Clemson University, United States",34.68108368,-82.82914734
"Nanjing University of Science and Technology, China",32.05611038,118.77500153
"University of Otago, New Zealand",-45.86550903,170.51513672
"Kyung Hee University, South Korea",37.59674835,127.05188751
"Uniwersytet im. Adama Mickiewicza w Poznaniu, Poland",52.40813828,16.91544151
"Weizmann Institute of Science, Israel",31.9080677,34.81433105
"Westfälische Wilhelms-Universität Münster, Germany",51.96358109,7.61320591
"Curtin University of Technology, Perth, Australia",-31.95183945,115.85870361
"University of the Philippines Baguio, Philippines",16.41189957,120.59329987
"University of Arkansas, United States",36.06580734,-94.17588043
"University of Northumbria at Newcastle, United Kingdom",54.97787857,-1.60765505
"Université de Lorraine, France",48.69610977,6.17666674
"University of Colorado Health Sciences Center, United States",47.65201187,-122.31239319
"Université Hassan II de Casablanca, Morocco",33.59451294,-7.6200285
"Università degli Studi di Roma Tre, Italy",41.86172485,12.47951317
"Université Paris Cité, France",48.85471725,2.34715796
"The University of Oklahoma, United States",35.21938324,-97.44792938
"Banasthali Vidyapith, India",26.40332985,75.87574768
"University of Texas at San Antonio, United States",29.58328438,-98.61961365
"Naval Postgraduate School, United States",36.59733582,-121.87303162
"Universität des Saarlandes, Germany",49.25556183,7.04166985
"Université Ibn Zohr, Morocco",31.17282104,-7.3362484
"Università degli Studi di Trento, Italy",46.06924057,11.12060833
"Università di Salerno, Italy",40.67791748,14.76595402
"Technische Universität Hamburg-Harburg, Germany",53.4653244,9.98644543
"Indian Institute of Science Education and Research, Kolkata, India",22.56557274,88.37021637
"Hassan II University of Casablanca, Morocco, Morocco",33.59451294,-7.6200285
"University of Missouri - Kansas City, United States",39.03354645,-94.57557678
"Matej Bel University, Banska Bystrica, Slovakia",48.73310089,19.14550018
"Katholieke Universiteit Nijmegen, Netherlands",51.84169388,5.85865116
"Mahatma Gandhi University,Kottayam, India",9.65950394,76.53148651
"Università degli Studi dell'Aquila, Italy",42.35957718,13.38958645
"Presidency University, Kolkata, India",22.57609558,88.36352539
"Gottfried Wilhelm Leibniz Universität Hannover, Germany",52.38219833,9.71780014
"University of Management and Technology, Pakistan",29.39997482,68.81533813
"Max-Planck-Institut für Gravitationsphysik (Albert-Einstein-Institut), Germany",51.09198761,10.38080883
"University of Nebraska-Lincoln, United States",40.81655502,-96.70545959
"Boston College, United States",42.33549118,-71.16886902
"University of Kansas, United States",38.95255661,-95.26589966
"Babeş-Bolyai University, Romania",46.76766968,23.59136963
"Institut National Polytechnique de Grenoble, France",45.1908989,5.71700001
"École Nationale Supérieure des Mines de Paris, France",48.84495163,2.33919311
"Universidade de Santiago de Compostela, Spain",42.88705826,-8.54376888
"Kyungpook National University, South Korea",35.89139175,128.61056519
"Marchuk Institute of Numerical Mathematics of the Russian Academy of Sciences, Russia",61.66702652,99.09856415
"Instituto de Matemática Pura e Aplicada, Brazil",-22.96528435,-43.23793793
"University of Le Havre, France",49.49259186,0.1065027
"University of South Africa, South Africa",-28.99632072,25.08714294
"Université Montpellier II, France",43.63798523,3.86364794
"Cairo University, Egypt",30.02684021,31.2064991
"Universidad Rey Juan Carlos, Spain",40.33482361,-3.87216592
"Escuela Politecnica Nacional, Ecuador",-0.2101692,-78.4886322
"University of Cape Town, South Africa",-33.9545517,18.47084236
"Université de Metz, France",49.11972046,6.16666985
"Nankai University, China",39.10110855,117.16471863
"Shanghai Normal University , China",31.23036957,121.47370148
"Université de Provence - Aix-Marseille I, France",43.29502106,5.37448692
"Universidad de Valladolid, Spain",41.65222168,-4.72138977
"North Dakota State University, United States",46.8981514,-96.80357361
"London South Bank University, United Kingdom",51.49772644,-0.10141584
"Novosibirsk State University, Russia",54.84631729,83.09375
"University of North Carolina at Charlotte, United States",35.2237854,-80.84114075
"North-West University, Potchefstroom, South Africa",-26.69799614,27.09702492
"Université Paris V, France",48.85139084,2.34055591
"Rand Afrikaans University, South Africa",-26.18280029,28.00020027
"Tanta University, Egypt",30.8000927,30.99319839
"Portland State University, United States",45.51277924,-122.68527985
"Ain Shams University, Egypt",30.0770607,31.28478622
"University of Pretoria, South Africa",-25.75444603,28.23129654
"Università degli Studi di Pavia, Italy",45.18682098,9.15718937
"Indian Institute of Technology, Dhanbad, India",23.79404259,86.42617035
"Indian Institute of Technology Varanasi (Banaras Hindu University(BHU)), India",25.26603317,82.99111176
"University of Saskatchewan, Canada",52.13277054,-106.62431335
"Institute of Mathematics, Slovak Academy of Sciences, Slovakia",48.70747757,19.48480606
"Université Paris IX - Dauphine, France",46.62480927,2.45837402
"Ural State University, Russia",56.8404007,60.6167984
"Universidad de Málaga, Spain",36.72000122,-4.41611004
"Universitat Rovira i Virgili, Spain",41.12020111,1.25943398
"University of Debrecen, Hungary",47.55486298,21.62142181
"Indian Institute of Technology Indore, India",22.71867371,75.85571289
"Multimedia University, Malaysia",2.2493794,102.27631378
"Teesside University, United Kingdom",54.57040024,-1.23534441
"University of the West of England, Bristol, United Kingdom",51.4565092,-2.6058735
"National University of Ireland, Maynooth, Ireland",53.38468933,-6.60105801
"Sun Yat-sen University, China",20.31489182,103.98526001
"University of Niš, Serbia",43.31686783,21.89449883
"Amirkabir University of Technology (Tehran Polytechnic University), Iran",35.70435333,51.40951157
"University of Zagreb, Croatia",45.80904007,15.97044277
"Universitat de València, Spain",39.47904968,-0.35908729
"Université Tunis-El Manar, Tunisia",36.82925415,10.14631557
"University of Puerto Rico, Rio Piedras, United States",39.50357056,-99.01832581
"Open Universiteit, Netherlands",51.8207016,5.86329985
"Amity University, India",28.54398727,77.33327484
"Universität Rostock, Germany",54.07567596,12.0978756
"Universidad Técnica Federico Santa María, Chile",-32.74787521,-70.65673828
"Universität Paderborn, Germany",51.70820236,8.77164364
"South Ural State University, Russia",55.16166687,61.36665344
"École Normale Supérieure Paris, France",48.84167862,2.34479189
"Kansas State University, United States",39.19746017,-96.58454132
"University of Exeter, United Kingdom",50.73708344,-3.53506827
"Kyushu University, Japan",33.62783813,130.42297363
"Central China Normal University, China",34.19442749,117.1900177
"École Nationale des Ponts et Chaussées, France",48.84108734,2.58796406
"Marquette University, United States",43.03834915,-87.93055725
"Universität Salzburg, Austria",47.78855133,13.06013107
"Thammasat University, Thailand",13.75691795,100.49201202
"Graduate University for Advanced Studies, Japan",36.65415573,137.9765625
"Uniwersytet Szczeciński, Poland",53.43650818,14.54471302
"Palacký University, Olomouc, Czech Republic",49.59460068,17.2602253
"Trinity College, Dublin, Ireland",53.3437233,-6.25461674
"Islamic Azad University, Karaj Branch, Iran",35.82249069,50.99046707
"University of the Philippines, Philippines",15.94740677,121.42166901
"Université Gustave-Eiffel, France",47.15371704,-1.63683856
"New Mexico Institute of Mining and Technology, United States",34.42137146,-106.10839081
"Netaji Subhas University of Technology, India",22.80906487,86.26312256
"Shahed University, Iran",35.55072403,51.34878159
"Université de Toulouse, France",43.60440063,1.44389999
"New Mexico State University, United States",32.28203964,-106.75453949
"University of Northern Colorado, United States",40.40485382,-104.6967392
"Universität Bremen, Germany",53.11134338,8.85937691
"Technion-Israel Institute of Technology, Israel",30.81242561,34.859478
"Academy of Mathematics and Systems Science, Chinese Academy of Sciences, China",36.55937195,103.7533493
"Göteborg Universitet, Sweden",57.70723343,11.96701717
"Universidad Carlos III de Madrid, Spain",40.54534531,-4.01263237
"Southern Illinois University at Carbondale, United States",37.75101089,-89.2197876
"Utah State University, United States",41.75180435,-111.81037903
"Memorial University of Newfoundland, Canada",47.57320023,-52.73408508
"Universidad Nacional de Córdoba, Argentina",-31.43762016,-64.18779755
"Waseda University, Japan",35.7066803,139.72232056
"Indiana University-Purdue University Indianapolis, United States",39.77475357,-86.17616272
"Universidade Federal da Bahia, Brazil",-12.99405766,-38.52045822
"Université Pantheon-Sorbonne : Paris I, France",48.84943771,2.34373593
"Universidade Federal do Espírito Santo, Brazil",-20.27713203,-40.30448151
"École Polytechnique de Montréal, Canada",45.50456619,-73.61283112
"Renmin University of China, China",39.97027969,116.31777954
"Istanbul University, Turkey",41.01226807,28.96281242
"Université Abou Bekr Belkaid, Tlemcen, Algeria",34.91972733,-1.30179703
"University of Zielona Góra, Poland",51.93662262,15.50868511
"Instituto Superior Técnico, Portugal",38.73677063,-9.13871956
"Universidade dos Açores, Portugal",37.74656677,-25.66424561
"Swedish University of Agricultural Sciences, Sweden",59.67497253,14.52085876
"Université Paris Sud - Paris XI, France",46.62480927,2.45837402
"Univerza v Mariboru, Slovenia",46.55921555,15.64331722
"Université du Luxembourg, Luxembourg",49.50503159,5.948246
"Vali-e-Asr University of Rafsanjan, Iran",30.40218353,55.99417877
"University of Novi Sad, Serbia",45.25455475,19.84257507
"James Madison University, United States",38.43465042,-78.8675766
"Université Moulay Ismail, Meknès, Morocco",33.89841461,-5.53215837
"Universitatea Ovidius Constanta, Romania",44.19441986,28.6506443
"Universidad Autónoma Metropolitana-Azcapotzalco, Mexico",19.50338364,-99.18694305
"Northwestern Polytechnical University, China",34.24105453,108.91065979
"North-West University, Mafikeng, South Africa",-25.82559395,25.60804749
"Soochow University, Taiwan",25.09527969,121.54556274
"University of Southern Denmark, Denmark",30.52467346,-91.19003296
"Indian Institute of Science Education and Research, Pune, India",18.52890396,73.8743515
"London School of Hygiene & Tropical Medicine, United Kingdom",51.2620081,-0.1522929
"Le Mans Université, France",48.01710129,0.15954199
"Office National d'Etudes et de Recherches Aérospatiales, France",48.7121315,2.23185205
"Universität Osnabrück, Germany",52.27217865,8.04200554
"Université Henri Poincaré Nancy 1, France",48.66556168,6.15944004
"Wesleyan University, United States",41.55544662,-72.65723419
"Beihang University, China",39.98191071,116.3473053
"Bar-Ilan University, Israel",32.06993484,34.84484863
"Université de Grenoble, France",45.19034958,5.76713133
"Northeast Normal University, China",43.8572998,125.32720184
"Université Pierre Mendès France (Grenoble-II), France",45.19000626,5.77055454
"University of Bucharest, Romania",44.43559265,26.10082054
"University of Wyoming, United States",41.31419373,-105.56958771
"University of Gdansk, Poland",54.35603333,18.64612007
"Universidad Autónoma del Estado de Morelos, Mexico",18.74207687,-99.0749588
"Tennessee Technological University, United States",36.17623901,-85.50891876
"University of the Aegean, Greece",38.14803314,23.95284462
"Payame Noor University, Iran",35.80098724,51.5026207
"Institut de Mathématiques de Toulouse, France",43.6039505,1.44450903
"Università di Palermo, Italy",38.10955048,13.3737545
"Wayne State University, United States",42.35664749,-83.07086945
"Université de Lille I, France",50.609272,3.14158893
"Trakya University, Turkey",41.65169907,26.52190018
"South Kazakhstan State University, Kazakhstan",48.10129547,66.7780838
"Universität Regensburg, Germany",48.99667358,12.09580517
"Universität St.Gallen, Switzerland",47.43255615,9.37572098
"Belgorod State University, Russia",50.59414673,36.57603836
"University of Dundee, United Kingdom",56.45793915,-2.9821167
"Université de Sherbrooke, Canada",45.3780899,-71.92865753
"Chiang Mai University, Thailand",18.80784607,98.95465851
"European University Institute, Firenze, Italy",43.76869583,11.2569294
"University of Massachusetts, Dartmouth, United States",41.59711456,-70.95237732
"Michigan Technological University, United States",47.11953735,-88.55132294
"University of Sfax, Tunisia",34.7394371,10.76040268
"Université de Rouen, France",49.45957184,1.06993091
"Thai Nguyen College of Sciences, Vietnam",21.5936985,105.84450531
"Université de Tours, France",47.35633087,0.70311999
"Max-Planck Institute for Mathematics in the Sciences, Leipzig, Germany",51.33969116,12.37135601
"Università Cà Foscari Venezia, Italy",45.43450165,12.32649994
"Université de Poitiers, France",46.58610916,0.34389001
"University of Waikato, New Zealand",-37.78637314,175.31741333
"Research Institute for Symbolic Computation (RISC), Linz, Austria",48.30608749,14.28643703
"Guizhou University, China",26.8122673,106.87825012
"Universidad de Concepción, Chile",-36.8302269,-73.0348053
"Universidad de la Republica, Montevideo, Uruguay, Uruguay",-34.90589142,-56.19131088
"University of Kent, Canterbury, United Kingdom",51.29602814,1.06460047
"Université de Nice-Sophia Antipolis, France",43.71752167,7.26820993
"Università degli Studi di Camerino, Italy",43.13605499,13.06885624
"Università Commerciale Luigi Bocconi, Italy",45.44890976,9.18983746
"Université Blaise Pascal, France",45.76173019,3.11307502
"Technische Universität Kaiserslautern, Germany",49.42457581,7.75441313
"IT University of Copenhagen, Denmark",55.67933655,12.57098198
"Ateneo de Manila University, Philippines",14.63889027,121.07778168
"The University of Texas Health Science Center at Houston, United States",29.76080322,-95.36950684
"Universitetet i Bergen, Norway",60.38424301,5.33033609
"University of Haifa, Israel",32.76113129,35.02018356
"Homi Bhabha National Institute, India",19.0340004,72.9260025
"IMT Institute for Advanced Studies, Lucca, Italy",43.84301376,10.5079937
"Università degli Studi di Siena, Italy",43.31884766,11.33499146
"University of Louisville, United States",38.2109642,-85.75769806
"Eastern Mediterranean University, Turkey",35.14465714,33.90811539
"Technical University of Ostrava, Czech Republic",49.84079361,18.29088402
"Budapest University of Technology and Economics, Hungary",47.1652832,19.41218948
"Ibn Tofail University, Morocco",31.17282104,-7.3362484
"Isfahan University of Technology, Iran",32.60663605,51.65917206
"Université Paris-Est, France",48.8769455,2.35916662
"George Peabody College for Teachers, United States",40.81263351,-73.95376587
"Université de Bretagne Occidentale, France",48.39888763,-4.49888897
"King Abdulaziz University, Saudi Arabia",21.49451637,39.24560547
"Universidade Federal do Rio de Janeiro, Brazil",-22.86267853,-43.2232132
"Università degli Studi dell'Insubria, Italy",45.81446838,8.82727623
"Universitetet i Oslo, Norway",59.93896103,10.72195053
"Università degli Studi di Padova, Italy",45.41699982,11.86699963
"Université Paris-Sud XI et Supélec, France",48.85689545,2.35084867
"University of Queensland, Australia",-27.49777794,153.01277161
"Uppsala Universitet, Sweden",59.8576889,17.62978554
"University of Iceland, Iceland",64.98413086,-18.57933235
"Lehigh University, United States",40.60486221,-75.37735748
"Universitat Jaume I de Castellón, Spain",39.99382401,-0.06654
"Instytut Fizyki Molekularnej PAN, Poland",52.12467194,19.40042686
"Bayerische Julius-Maximilians-Universität Würzburg, Germany",49.78858948,9.93552017
"London School of Economics and Political Science, United Kingdom",51.2620081,-0.1522929
"Air Force Institute of Technology, United States",39.78159332,-84.08363342
"Abdus Salam School of Mathematical Sciences GC University, Lahore, Pakistan",31.57320023,74.30789948
"Riphah International University, Pakistan",33.96360016,71.52919769
"Universidad de Zaragoza, Spain",41.64196777,-0.89960802
"Claremont Graduate University, United States",34.10720062,-117.72554779
"The Institute of Mathematical Sciences, Chennai, India",13.07209206,80.20185852
"South China Normal University, China",34.19442749,117.1900177
"Lviv Institute of Applied Problems of Mechanics and Mathematics, Ukraine",49.83968353,24.02971649
"Université Louis Pasteur - Strasbourg I, France",48.58160019,7.76480007
"École nationale de la statistique et de l'administration économique, France",48.71075058,2.20740175
"SRM Institute of Science and Technology, India",22.35250854,79.36368561
"Izmir Institute of Technology, Turkey",38.41872406,27.12960052
"University of Idaho, United States",42.8629837,-112.42902374
"Universidad del Bío-Bío, Chile",-36.82280731,-73.01255798
"Beijing Institute of Technology, China",39.9078064,116.39758301
"Malaviya National Institute of Technology, India",22.35250854,79.36368561
"JK Lakshmipat University, Jaipur, India",26.83605957,75.64818573
"University of Texas at Arlington, United States",32.727769,-97.1196745
"Shahrekord University, Iran",32.325737,50.84973526
"Université de Versailles Saint-Quentin-en-Yvelines, France",48.80410385,2.1441741
"Russian Academy of Sciences, Russia",61.66702652,99.09856415
"Taras Shevchenko National University of Kyiv, Ukraine",50.44190216,30.51131439
"Clarkson University, United States",44.66320038,-74.99871063
"Euskal Herriko Unibertsitatea, Spain",43.33140564,-2.97060585
"Uniwersytet Śląski w Katowicach, Poland",50.26121902,19.02750969
"Florida Institute of Technology, United States",39.50357056,-99.01832581
"Technische Universität Ilmenau, Germany",50.68266678,10.93632317
"Université de Yaoundé I, Cameroon",3.85712719,11.49944782
"Université de Toulon, France",43.1361084,6.01944017
"Université Sorbonne Paris Cité, France",48.85471725,2.34715796
"Université Bordeaux 1, France",44.80693817,-0.60000002
"Siberian Federal University, Russia",56.00732422,92.77121735
"Sogang University, South Korea",37.55110931,126.9411087
"Université Virtuelle de Tunis, Tunisia",36.80020523,10.18577576
"Universiteit Gent, Belgium",51.01084518,3.71048975
"University of Southern Mississippi, United States",31.32838821,-89.3325882
"Swinburne University, Australia",-37.82052612,145.03851318
"University of Da Nang (Đại học Đà Nẵng), Vietnam",16.0709362,108.21942139
"Hanoi University of Education  (Dai Hoc Su Pham Ha Noi), Vietnam",21.03038406,105.85530853
"Université Aix-Marseille III, France",43.29352188,5.35791683
"Ensai, France",46.62480927,2.45837402
"University of Guilan, Iran",37.15156174,49.63897324
"Ecole Nationale Supérieure des Mines de Saint-Etienne, France",45.42242813,4.4084301
"Helsingin yliopisto, Finland",60.17192459,24.94982719
"Universidade Federal de Goiás, Brazil",-15.93706417,-50.13711548
"Vietnam National University - Ho Chi Minh City, Vietnam",10.78279972,106.69519806
"University of Vermont, United States",44.07525253,-72.66269684
"Dongguk University, South Korea",37.55822372,127.00013733
"Brigham Young University, United States",40.25246811,-111.64797211
"University of Technology, Mauritius, Mauritius",-20.44070435,57.67164993
"University of Miami, United States",39.50968552,-84.73118591
"Amrita Vishwa Vidyapeetham, India",10.9011097,76.90277863
"Morgan State University, United States",39.34213638,-76.58332062
"King Mongkut's University of Technology Thonburi, Thailand",13.71533203,100.48479462
"Instytut Fizyki Polskiej Akademii Nauk, Warsaw, Poland",52.23497772,21.00849152
"University of Ibadan, Nigeria",7.46151257,3.89087796
"Universidade Estadual Paulista, São Paulo, Brazil",-22.88778877,-48.49661636
"University of Johannesburg, South Africa",-26.18480873,27.99264908
"Technische Universität Bergakademie Freiberg, Germany",50.92476273,13.33382797
"Ajou University, South Korea",37.28291321,127.04606628
"Munster Technological University, Ireland",52.86519623,-7.97945976
"Rochester Institute of Technology, United States",43.08510971,-77.67405701
"Institut National des Sciences Appliquées de Lyon, France",45.78139114,4.87222004
"Central Michigan University, United States",43.58980179,-84.77749634
"Baku State University, Azerbaijan",40.37298584,49.81113815
"Chinese University of Hong Kong, HongKong",22.28417015,114.13777924
"University of East Anglia, United Kingdom",52.62017822,1.23785841
"École Supérieure d'Électricité (Supélec), France",48.70861816,2.16389394
"Universität Erfurt, Germany",50.99067688,11.00863457
"Hasselt University, Belgium",50.9258194,5.38998508
"Makerere University, Uganda",0.43996722,33.20117188
"University of Calgary, Canada",51.07804871,-114.13241577
"Universidad Juárez Autónoma de Tabasco, Mexico",28.70196497,-106.12977733
"Kangwon National University, South Korea",37.86943817,127.74417114
"Universidad De Valparaíso, Chile",-33.04390335,-71.61711121
"The University of Memphis, United States",35.11952972,-89.9367218
"Kasetsart University, Thailand",13.84807682,100.56964111
"Luleå University of Technology, Sweden",65.58550262,22.1903553
"École des hautes études en sciences sociales Paris, France",48.85018921,2.32684803
"Mizoram University, India",23.73940086,92.6651001
"Leningrad Electrotechnical Institute, Russia",59.93848419,30.31248474
"University of Kashan, Iran",34.00553513,51.36425781
"Ferris State University, United States",43.68345261,-85.48273468
"University of Manchester Institute of Science and Technology, United Kingdom",53.4721767,-2.2380785
"Beirut Arab University, Lebanon",33.8728447,35.49694443
"Akademia Górniczo-Hutnicza im. Stanisława Staszica w Krakowie, Poland",50.06452942,19.92374992
"University of Colorado, United States",40.00742722,-105.26633453
"Dalian University of Technology, China",22.69839287,114.40105438
"Flinders University, Australia",-35.02628708,138.57434082
"Harish-Chandra Research Institute, India",22.35250854,79.36368561
"Western University, Canada",42.99670029,-81.2736969
"Université Lumière Lyon 2, France",45.7508316,4.83722019
"Universitetet i Tromsø – Norges arktiske universitet, Norway",69.68248749,18.97310257
"Uniwersytet Kardynała Stefana Wyszyńskiego w Warszawie, Poland",52.29499817,20.95972061
"University of Ontario Institute of Technology, Canada",62.57421112,-96.60791016
"North-Eastern Hill University, India",25.61000061,91.90139008
"Université Félix Houphouët-Boigny, Cote d'Ivoire",5.34283161,-3.98765326
"Athens University of Economics and Business, Greece",38.14803314,23.95284462
"Helmut-Schmidt-Universität, Germany",53.56928635,10.11021233
"Dalhousie University, Canada",44.63782501,-63.59346008
"Universität Kaiserslautern, Germany",49.42457581,7.75441313
"Keio University, Japan",35.64577103,139.74629211
"École des Hautes Études Commerciales de Paris, France",48.75806046,2.17027998
"Institut Teknologi Bandung, Indonesia",-6.8906002,107.61001587
"Indian Institute of Technology Hyderabad, India",17.36599922,78.47599792
"École Normale Supérieure de Kouba, Algeria",36.73244476,3.08753586
"COMSATS Institute of Information Technology, Pakistan",29.39997482,68.81533813
"Shandong University, China",36.36856842,120.67868805
"Razi University, Iran",34.39053345,47.11250687
"Yeditepe University, Turkey",40.97277832,29.15193939
"École Centrale de Lyon, France",45.7840004,4.77026987
"University of Ulsan, South Korea",35.54867554,129.31500244
"Universidade de Coimbra, Portugal",40.20740128,-8.42650032
"Institut de Mathématiques de Jussieu, France",48.8269043,2.38032889
"Universidade Federal de Santa Catarina, Brazil",-27.59975052,-48.52306747
"University of Tartu, Estonia",58.38106918,26.7195015
"Universiti Putra Malaysia, Malaysia",2.99917006,101.70777893
"Medical University of South Carolina, United States",32.78416824,-79.95082855
"Mersin University, Turkey",36.78743362,34.52712631
"University of North Texas, United States",33.21137619,-97.15072632
"University of Auckland, New Zealand",-36.84999847,174.77000427
"Université de Pau et des Pays de l'Adour, France",43.31999588,-0.36398891
"Reykjavik University, Iceland",64.12372589,-21.92573166
"National Changhua University of Education, Taiwan",24.0,121.0
"École Normale Supérieure de Cachan, France",48.78874969,2.32663202
"Tel Aviv University, Israel",32.11388779,34.80416489
"Universidad Nacional del Sur, Argentina",-38.70143509,-62.26937866
"Ferdowsi University of Mashhad, Iran",36.31349945,59.5316925
"Patna University, India",25.60799217,85.16751862
"Universität Potsdam, Germany",52.40079498,13.01104069
"Indian Institute of Information Technology Allahabad, India",25.42911911,81.85462952
"Shahid Beheshti University, Iran",35.80173492,51.39284134
"University of Surrey, United Kingdom",51.23590088,-0.6093877
"Università degli Studi di Milano-Bicocca, Italy",45.51147461,9.21264553
"St. Cyril and St. Methodius University of Veliko Tarnovo, Bulgaria",43.07833099,25.64916992
"University Sidi Mohamed Ben Abdellah, Fès, Morocco",34.03465271,-5.01619244
"Sambalpur University, India",20.47299957,85.89099884
"Birkbeck, University of London, United Kingdom",51.52022171,-0.12986009
"Collège Mazarin, France",48.85730743,2.3369441
"Faculté des Sciences, Paris, France",48.85689545,2.35084867
"Universidade Federal do Paraná, Brazil",-25.43047905,-49.28451157
"Universidade Federal de Juiz de Fora, Brazil",-21.7609539,-43.35011292
"École Nationale Supérieure d'Électronique, d'Électrotechnique, d'Informatique, d'Hydraulique et des Télécommunications, France",46.62480927,2.45837402
"Université de Valenciennes et du Hainaut-Cambrésis, France",50.32619858,3.51390004
"University of Ioannina, Greece",39.61548996,20.84168434
"Universidad Adolfo Ibáñez, Chile",-33.42135239,-70.5916214
"Universitat Pompeu Fabra, Spain",41.37916565,2.17950797
"Azarbaijan Shahid Madani University, Iran",37.81583405,45.94537354
"Università degli Studi di Bari, Italy",41.12055969,16.86770821
"National Taiwan University, Taiwan",25.01771164,121.53873444
"University of Electronic Science and Technology of China, China",29.06916046,91.86723328
"Institute of Applied Mathematics and Mechanics, National Academy of Sciences of Ukraine, Ukraine",38.89300537,-77.04775238
"Université Jean Monnet - Saint-Etienne, France",45.42673492,4.39186621
"Northcentral University, United States",33.64197159,-111.89380646
"Institute of Control Science, Russia",61.66702652,99.09856415
"Ohio University, United States",39.32492065,-82.10295868
"Universität Graz, Austria",47.07794571,15.44983292
"Gerhard-Mercator-Universität - Gesamthochschule Duisburg, Germany",51.43514633,6.76269102
"Université des Sciences et Technologie de Lille-Lille I, France",50.63128662,3.06275272
"Akita University, Japan",39.72805786,140.13389587
"University of Manitoba, Canada",49.80735779,-97.13819885
"Universidad Veracruzana, Mexico",20.52713394,-97.45899963
"Universidade Federal de Ouro Preto, Brazil",-20.38552666,-43.50352097
"Università degli Studi di Roma Tor Vergata, Italy",41.85086441,12.61976528
"University of South Wales, United Kingdom",51.58901596,-3.3286953
"Tulane University, United States",29.9397068,-90.12065887
"University of Massachusetts Boston, United States",42.35899353,-71.0586319
"Universidad Nacional de Rosario, Argentina",-32.95936203,-60.6617012
"Aristotle University of Thessaloniki, Greece",40.63477707,22.94309235
"Université Antilles-Guyane, France",46.62480927,2.45837402
"Université de Lausanne, Switzerland",46.52232742,6.57948065
"Università Della Svizzera Italiana, Switzerland",46.01088715,8.95808887
"Universität Siegen, Germany",50.90639114,8.02832985
"Universidade do Minho, Portugal",41.56123352,-8.39628029
"Uniwersytet Mikołaja Kopernika, Poland",52.12467194,19.40042686
"Institute of Electronic Technology, Moscow, Russia",55.75654221,37.61492157
"Swami Ramanand Teerth Marathwada University, India",19.10121918,77.28746033
"Alpen-Adria-Universität Klagenfurt, Austria",46.61647797,14.26464367
"Ankara University, Turkey",39.93500137,32.83169937
"University of Mazandaran, Iran",36.71304321,52.69471741
"Université Paris-Est Créteil Val-de-Marne, France",48.78961182,2.45259738
"İstanbul Teknik Üniversitesi, Turkey",41.10435486,29.02753067
"University of Denver, United States",39.67893982,-104.9624176
"Universidade da Coruña, Spain",43.37041855,-8.4202261
"University of Texas at El Paso, United States",31.77369155,-106.4993764
"University of Stirling, United Kingdom",56.14593124,-3.91758776
"Ramakrishna Mission Vivekananda Educational and Research Institute, India",28.63682938,77.20665741
"Kharazmi University, Iran",35.70391846,51.42677689
"Savitribai Phule Pune University, India",18.5522995,73.82460022
"Royal Holloway, University of London, United Kingdom",51.4254722,-0.5622039
"International Islamic University Islamabad, Pakistan",33.65673065,73.02475739
"Université Savoie Mont Blanc, France",45.56689835,5.91779137
"Steklov Institute of Mathematics, St. Petersburg, Russia",59.93848419,30.31248474
"Periyar University, India",11.71774197,78.08200073
"Free University of Bozen-Bolzano, Italy",46.49671555,11.35800457
"Linnaeus University, Sweden",63.8207283,20.30728722
"Chennai Mathematical Institute, India",12.82842827,80.22009277
"Université de Reims Champagne-Ardenne, France",49.25194168,4.0374999
"National Sun Yat-Sen University, Taiwan",22.6271286,120.2648468
"Universidad del Norte, Colombia",11.01930046,-74.85084534
"Villanova University, United States",40.03770828,-75.3375473
"Universidad de Barcelona, Spain",41.38586044,2.16435742
"Universitat de les Illes Balears, Catalonia",41.79797363,1.52853096
"Massey University, New Zealand",-36.73301697,174.70265198
"Southwestern University of Finance and Economics, China",36.55937195,103.7533493
"Dicle University, Turkey",37.93510056,40.27489853
"University College Cork, Ireland",51.89117115,-8.49719425
"Shaanxi Normal University, China",25.02614021,121.5276413
"Université du Littoral Côte d'Opale, France",50.95330048,1.87950003
"The University of New Mexico, United States",35.0905838,-106.63104248
"Abant Izzet Baysal University, Turkey",40.71450424,31.5146122
"University of Guelph, Canada",43.53437424,-80.22398376
"Istanbul Bilgi University, Turkey",41.06666946,28.94582939
"Manisa Celal Bayar University, Turkey",38.6108017,27.37906265
"Nevşehir Hacı Bektaş Veli Üniversitesi, Turkey",38.59872437,34.69504166
"University of Wales, Cardiff, United Kingdom",51.5066737,-3.1913117
"National Chengchi University, Taiwan",24.98583412,121.57416534
"COEP Technological University, Pune, India",18.5522995,73.82460022
"Universidade Federal de Campina Grande, Brazil",-7.21461916,-35.9083786
"University of New England, Australia",43.17713547,-71.82530212
"Universidad de los Andes, Venezuela, Venezuela",4.60145807,-74.06517029
"State University of New York at Binghamton, United States",42.06996155,-75.9112854
"University of Wollongong, Australia",-34.42710114,150.89320374
"University of Primorska, Slovenia",46.11947632,14.82200527
"The University of Burdwan, India",23.25,87.84999847
"Yuzuncu Yil University, Turkey",38.56768036,43.28473663
"Yazd University, Iran",31.83145142,54.35016632
"National Chiao Tung University, Taiwan",24.79586029,120.9847641
"Case Western Reserve University, United States",41.5107193,-81.60707092
"Indian Institute of Technology, Patna, India",25.54798698,85.07231903
"Universität Greifswald, Germany",54.09463882,13.37462616
"Unversität Saarbrücken, Germany",49.23477936,6.99439573
"Universidad Nacional del Litoral, Argentina",-34.99649811,-64.96728516
"Kathmandu University, Nepal",27.6196003,85.53859711
"Toyota Technological Institute at Chicago, United States",41.8832283,-87.63240051
"University of Turin, Italy",45.06937408,7.68892479
"University of the Bosphorus, Turkey",41.08409882,29.05500031
"Jilin University, China",43.83819199,126.54928589
"Bayero University, Nigeria",12.01605892,8.50654221
"University of Alabama-Tuscaloosa, United States",33.21250916,-87.54587555
"Université d'Avignon, France",43.94934082,4.81605482
"Hungarian Academy of Sciences, Hungary",47.1652832,19.41218948
"University of Fort Hare, South Africa",-32.78390121,26.84730721
"Institut National des Sciences Appliquees de Toulouse, France",43.57241821,1.46119583
"Anadolu University, Turkey",39.79140091,30.49970055
"University of the Philippines Diliman, Philippines",14.65325546,121.05564117
"Semnan University, Iran",35.60319519,53.4345665
"Chinese University of Hong Kong, China",22.4197197,114.20679474
"University of Zimbabwe, Zimbabwe",-18.45549583,29.74684143
"Kurukshetra University, India",29.95769119,76.8158493
"Ulster University, United Kingdom",55.15127182,-6.6761117
"Pohang University of Science and Technology, South Korea",36.03073883,129.37342834
"University of Kalyani, India",22.98612785,88.44677734
"The Rockefeller University, United States",40.7625618,-73.95575714
"Center for Theoretical Physics, Polish Academy of Sciences, Poland",52.12467194,19.40042686
"University of Montenegro, Montenegro",4.56641769,-75.75070953
"Christ University, India",12.93436909,77.6061554
"Hebei Normal University, China",25.02614021,121.5276413
"University of Louisiana at Lafayette, United States",30.21079826,-92.0239563
"Universidad Anáhuac, Mexico",19.40204811,-99.26380157
"The American University in Cairo, Egypt",30.01916885,31.50286293
"Univerzita Pavla Jozefa Šafárika v Košiciach, Slovakia",48.71916962,21.25111008
"Universite de Carthage, Tunisia",36.8719101,10.33457756
"Indian Statistical Institute, Delhi Centre, India",22.64553833,88.37752533
"National Central University, Taiwan",24.96835709,121.19198608
"University of Kerala, India",8.5032196,76.94743347
"Institute of Theoretical and Applied Mathematics, Almaty, Kazakhstan",43.23639297,76.94572449
"Kannur University, India",11.87598038,75.37291718
"Vijayanagara Sri Krishnadevaraya University, India",15.15339565,76.87685394
"University of Mohaghegh Ardabili, Iran",38.20832825,48.29895401
" National Institute of Technology, Surat, India",21.20350838,72.83922577
"University of Cyprus, Cyprus",35.05016708,33.22616196
"Chung-Ang University, South Korea",36.47195053,127.60823059
"University of Strathclyde, United Kingdom",55.86059189,-4.24096918
"Universitatea Politehnica din Bucuresti, Romania",44.43877029,26.04960251
"Universidad Central Marta Abreu de Las Villas, Cuba",22.43770027,-79.89666748
"Université Gaston Berger, Senegal",16.06413078,-16.42339897
"Indian Institute of Science Education and Research, Bhopal, India",23.13952637,77.40857697
"INRIA Sophia Antipolis - Méditerranée, France",46.62480927,2.45837402
"Université Paul Verlaine - Metz, France",49.11972046,6.16666985
"Yaroslavl State University, Russia",61.66702652,99.09856415
"Uniwersytet Łódzki, Poland",51.7716713,19.47306061
"University of Birjand, Iran",32.845047,59.29105759
"University of Tirana , Albania",41.32757187,19.81927681
"The University of North Carolina at Greensboro, United States",36.0949173,-79.88702393
"University of Tunis, Tunisia",36.80020523,10.18577576
"Sudan University Of Science and Technology, Sudan",15.61093903,32.54149628
"University of KwaZulu-Natal, South Africa",-29.85370064,31.00530052
"Tierärztliche Hochschule Hannover, Germany",52.36917114,9.76556015
"Lebanese University, Lebanon",33.82783127,35.52135468
"Universidade Aberta, Portugal",38.71779251,-9.15216827
"Università degli Studi di Cagliari, Italy",39.21734619,9.11489582
"Communauté Université Grenoble Alpes, France",45.19034958,5.76713133
"Faculté Polytechnique de Mons, Belgium",50.45166016,3.9531889
"Gran Sasso Science Institute, Italy",42.34459305,13.39654636
"Technische Hochschule Leuna-Merseburg, Germany",51.35720444,11.99227333
"Université Mohammed V -Agdal, Rabat, Morocco",33.99831009,-6.85429096
"Moldova State University, Moldova",47.01831818,28.82403183
"Universität Koblenz-Landau, Germany",49.20394516,8.10722065
"Gebze Institute of Technology, Turkey",40.79719543,29.43693161
"Sobolev Institute of Mathematics, Novosibirsk, Russia",55.04999924,82.94999695
"The American University, United States",38.93717575,-77.08914185
"Boise State University, United States",43.6033783,-116.20194244
"State University of Novi Pazar, Serbia",43.14069748,20.51797104
"Universidad Nacional del Nordeste, Argentina",-34.99649811,-64.96728516
"Çukurova Universitesi, Turkey",37.05502319,35.35387039
"Université Clermont Auvergne, France",45.77720642,3.08251786
"Shiv Nadar University, India",28.52594757,77.5746994
"Vietnam National University, Hanoi, Vietnam",21.13527475,105.8439135
"Institute for Advanced Studies in Basic Sciences, Zanjan, Iran, Iran",36.67630768,48.50897217
"École supérieure des sciences et de la technologie de Hammam Sousse, Tunisia",35.87038803,10.58674049
"Central South University, China, China",28.15379906,112.93763733
"University of Toyama, Japan",36.69916916,137.18806458
"Donghua University, China",31.20350075,121.41429901
"Harbin Institute of Technology, China",45.80335999,126.53513336
"University of Nairobi, Kenya",-1.27809346,36.81371307
"Southern Federal University, Russia",47.22763062,39.72784805
"National Technical University of Athens, Greece",37.96819687,23.77868462
"Limburgs Universitair Centrum, Belgium",50.9258194,5.38998508
"Courant Institute, United States",40.72858047,-73.99552155
"University of Khartoum, Sudan",15.61093903,32.54149628
"University of Dar es Salaam, Tanzania",-6.77987671,39.2042923
"Saratov State University, Russia",61.66702652,99.09856415
"Universidad de La Rioja, Spain",42.46359634,-2.42593074
"Medical College of Wisconsin, United States",43.04395294,-88.02303314
"Yeshiva University, United States",40.85012817,-73.92926025
"Politecnico di Torino, Italy",45.06296921,7.66097879
"University of Dayton, United States",39.77843336,-84.22413958
"Ss. Cyril and Methodius University of Skopje, Macedonia",42.00035095,21.44338036
"Universidade Estadual Paulista ""Júlio de Mesquita Filho"", Brazil",-22.88778877,-48.49661636
"University of Tulsa, United States",36.15177917,-95.94587708
"Brunel University, United Kingdom",51.53269196,-0.47360012
"Teknillinen korkeakoulu, Finland",63.24677658,25.9209156
"Technische Hochschule Stuttgart, Germany",48.78152466,9.17469406
"University of Wales, United Kingdom",51.4837789,-3.1690833
"Universidad de los Andes, Colombia, Colombia",4.60145807,-74.06517029
"University of Annaba, Algeria",36.89821625,7.75492716
"Wilmington University, United States",39.4810524,-76.13613129
"Central University of Tamil Nadu, India",10.81624413,79.61433411
"Cochin University of Science and Technology, India",22.35250854,79.36368561
"Maharaja Sayajirao University of Baroda, India",22.30990028,73.18599701
"Université des sciences et de la technologie Houari-Boumediene, Algeria",36.7120285,3.18048072
"Mahidol University, Thailand",15.13178921,101.01837921
"Samara State University, Russia",53.22261047,50.17309952
"Faculty of Science, Rabat, Morocco",34.02236176,-6.83402205
"Deakin University, Australia",-38.1981163,144.29602051
"University of Wales, Aberystwyth, United Kingdom",52.4145546,-4.08249044
"Gubkin Russian State University of Oil and Gas, Russia",51.28348923,37.53554916
"University of Dschang, Cameroon",5.4469924,10.05330944
"Universidad de Almería, Spain",36.82921219,-2.40446997
"Hiroshima University, Japan",34.38222122,132.45805359
"Jawaharlal Nehru University, India",28.54055595,77.16612244
"City University of Hong Kong, China",22.33642197,114.17298889
"Universität Dortmund, Germany",51.4902153,7.45828819
"Universidade Técnica de Lisboa, Portugal",39.00139236,-9.16674137
"International School for Advanced Studies, Italy",43.52555084,12.16000175
"Nanjing University, China",32.05611038,118.77500153
"Federal University of Technology Owerri (FUTO), Nigeria",5.48973608,7.03419733
"University of Lagos, Nigeria",6.51456165,3.39463329
"Université de Bretagne-Sud, France",46.62480927,2.45837402
"Universidad Nacional de San Luis, Argentina",-33.30169296,-66.33750153
"Bangalore University, India",12.93877506,77.50318146
"University of Tsukuba, Japan",36.11143112,140.10383606
"Dhirubhai Ambani Institute of Information and Communication Technology, India",22.35250854,79.36368561
"Quy Nhon University, Vietnam",13.77459335,109.23825073
"Université de La Réunion, France",-20.90209579,55.48388672
"Université Stendhal (Grenoble III), France",45.19100189,5.77400017
"International Burch University Sarajevo, Bosnia Herzegovina",43.81874466,18.31191254
"Bowie State University, United States",39.02016068,-76.75795746
"Indian Institute of Information Technology Guwahati, India",26.14316368,91.65942383
"Mondragon Unibertsitatea, Spain",43.06162643,-2.49769092
"Karolinska Institutet, Sweden",59.35154343,18.03106499
"Hanoi National University of Education, Vietnam",13.4233942,108.25662231
"Universidade Estadual Paulista, Rio Claro, Brazil",-22.41001129,-47.56039429
"Hong Kong University of Science and Technology, China",36.55937195,103.7533493
"Hanoi University, Vietnam",43.1025548,12.31108824
"Institut National Polytechnique de Lorraine, France",48.65222168,6.14805984
"Vidyasagar University, India",22.43027687,87.29862976
"Jacobs University Bremen, Germany",53.16829681,8.65054893
"Universitat de Girona, Catalonia",41.98551941,2.82803392
"Universitatea din Bucuresti, Romania",44.43559265,26.10082054
"Universidad del Cauca, Colombia",3.69840527,-76.55020142
"Université d'Abomey, Benin",7.18200111,1.99363196
"Bu-Ali Sina University, Iran",34.79557419,48.48471451
"University of Hanoi, Vietnam",21.03038406,105.85530853
"Shahrood University of Technology, Iran",32.6475296,54.56435013
"Università di Lugano, Italy",46.01088715,8.95808887
"Hunan University, China",28.18016624,112.9466095
"Rostov on Don State University, Russia",47.22303772,39.72137451
"Conservatoire National des Arts et Metiers, France",48.86694336,2.3544445
"University of Paris VIII, France",48.94472122,2.36332989
"Université Toulouse 1 Capitole, France",43.60639191,1.43666995
"Institut supérieur de l'aéronautique et de l'espace, France",43.56555176,1.47413003
"Academy of Sciences of Moldova, Moldova",47.2022171,28.46500397
"Chongqing University, China",29.56489944,106.46880341
"Institut de Ciències de l'Espai, Spain",42.78074265,-8.71097755
"Université de Sousse, Tunisia",35.83760452,10.60710907
"Kiev State University, Ukraine",50.44190216,30.51131439
"Vilnius University, Lithuania",54.68294525,25.28774643
"Shahid Chamran University of Ahvaz, Iran",31.30361557,48.65564346
"Graduate University of Advanced Technology of Kerman, Iran",30.29240799,57.06456375
"East China Normal University, China",31.22805977,121.40000153
"The Hong Kong Polytechnic University, China",22.30500031,114.18000031
"Institute of Mathematics, National Academy of Sciences of Belarus, Belarus",38.89300537,-77.04775238
"Université de Boumerdes, Algeria",36.75904083,3.47310209
"Djillali Liabes University, Algeria",28.0000267,2.9999826
"Nihon University, Japan",35.69100189,139.73760986
"Fordham University, United States",40.86170197,-73.88511658
"Tianjin University, China",39.10816574,117.17881012
"Panjab University, Chandigarh, India",30.76201057,76.76638031
"Indraprastha Institute of Information Technology, New Delhi, India",28.63242531,77.21878815
"University of Thessaly, Greece",39.71540833,23.10001183
"Central Economics and Mathematics Institute, Russian Academy of Science, Russia",61.66702652,99.09856415
"Democritus University of Thrace, Greece",40.97785187,25.13874435
"Institute of Applied Mathematics and Mechanics, Donetsk, Ukraine",47.98130798,37.77528381
"University of Hull, United Kingdom",53.77104568,-0.3688294
"Allameh Tabataba'i University, Iran",35.4698554,50.9948212
"Universidad de Vigo, Spain",42.16976166,-8.68457794
"Università di Catania, Italy",36.92663956,14.74502087
"University of Hong Kong, China",22.41145897,114.21533966
"Université Abdou Moumouni, Niamey, Niger",13.52483368,2.10982299
"Universidad Nacional de Educación a Distancia, Spain",40.3901062,-3.55436707
"Texas Christian University, United States",32.70755768,-97.3638382
"Instituto de Ciencias Matemáticas, Spain",40.3901062,-3.55436707
"Institute of Science and Technology Austria, Austria",47.24032211,9.89531326
"Izmir University of Economics, Turkey",38.98909378,35.43323517
"FAST-NUCES Peshawar, Pakistan",34.00696182,71.53305817
"University of East Sarajevo, Bosnia Herzegovina",43.82952118,18.35886383
"Universität zu Lübeck, Germany",53.83417511,10.70512199
"Universidade do Vale do Paraiba (UNIVAP), Brazil",-23.2076149,-45.94948196
"Macau University of Science and Technology, Macao",22.13003922,113.54579163
"Universidad de Murcia, Spain",38.0182991,-1.16999996
"Meiji University, Japan",35.69747543,139.76158142
"Vilniaus universitetas, Lithuania",54.68294525,25.28774643
"Selcuk University, Turkey",38.0253334,32.50893784
"Universitat Politècnica de Catalunya, Spain",41.3878746,2.11465192
"National Institute of Technology, Raipur, India",21.24551582,81.6420517
"University of Chester, United Kingdom",53.20013428,-2.89965105
"University of Mumbai, India",18.97500038,72.82582855
"Université d'Artois, France",50.28408051,2.79323292
"Université de Provence, France",43.5,5.5
"Brandenburgische Technische Universität Cottbus, Germany",51.76721954,14.32639027
"Universidad Tecnológica Nacional, Argentina",-34.6044426,-58.37277603
"Universite de Bouira, Algeria",36.37390137,3.90070081
"Università degli Studi di Bergamo, Italy",45.70439529,9.66102314
"Institute of Information and Communication Technologies,  Bulgarian Academy of Sciences, Bulgaria",42.75815964,25.23507118
"Jamal Mohamed College, India",10.78556442,78.69493866
"Rutgers University, Newark, United States",40.74081421,-74.18586731
"Hunan Normal University, China",28.1861763,112.94830322
"King Mongkut's Institute of Technology Ladkrabang, Thailand",13.72263336,100.74936676
"Escuela Superior de Fisica y Matematicas del Instituto Politecnico Nacional, Mexico",19.50056076,-99.1397171
"Chuo University, Japan",35.70814133,139.7489624
"Université d'Évry Val-d'Essonne, France",48.52262115,2.243397
"University of Craiova, Romania",44.31837845,23.79640388
"Kumamoto University, Japan",32.81388855,130.72805786
"Atlantic Technological University Sligo, Ireland",54.27852631,-8.46301842
"San Jose State University, United States",37.33518982,-121.88124084
"Institut de Mathématiques et de Sciences Physiques, Benin",9.52934742,2.25844073
"Bryn Mawr College, United States",40.02754593,-75.31478119
"Kwame Nkrumah University of Science and Technology, Kumasi, Ghana",6.69856071,-1.62330866
"University of Sargodha, Pakistan",32.0853653,72.67498779
"Northwest University, China",47.65771484,-122.19213104
"Yamagata University, Japan",38.25444412,140.34805298
"Firat University, Turkey",38.67919922,39.19660187
"Silesian University in Opava, Czech Republic",49.93777847,17.89666939
"Indian Statistical Institute, Chennai, India",13.07209206,80.20185852
"Universiti Sains Malaysia, Malaysia",5.35662413,100.30175781
"University of the Pacific, United States",45.52138901,-123.10879517
"INSA Rouen Normandie, France",49.3867569,1.06875002
"Indian Institute of Science Education and Research Thiruvananthapuram, India",8.53037357,76.9295578
"Tamkang University, Taiwan",25.17386818,121.44747162
"Andhra University, India",17.72752762,83.32344818
"Mälardalens högskola, Sweden",59.37077713,16.5037632
"University of Batangas, Philippines",13.72064686,121.10437012
"Kenyatta University, Kenya",-1.18097913,36.93099213
"Universidad del Valle, Colombia",14.60488415,-90.49124908
"École Centrale, France",48.76432419,2.28871107
"Saga University Honjo Campus, Japan",33.24222183,130.29110718
"Università della Calabria, Italy",39.36360931,16.22639084
"Otto-Friedrich-Universität Bamberg, Germany",49.89404678,10.88751411
"Edge Hill University, United Kingdom",53.5582428,-2.86952329
"University of Portsmouth, United Kingdom",50.79664993,-1.04220355
"Singapore University of Technology and Design, Singapore",1.29583895,103.77718353
"l'Institut National de Recherche en Informatique et en Automatique (INRIA), France",46.62480927,2.45837402
"Università Degli Studi di Modena e Reggio Emilia, Italy",44.64500046,10.92778015
"Xi'an Jiaotong University, China",31.02544022,121.43630219
"University of Plovdiv, Bulgaria",42.13815308,24.75136185
"Konkuk University, South Korea",37.54193878,127.07639313
"Universidad de La Laguna, Spain",28.48811722,-16.31477547
"Universidade Federal do Amazonas, Brazil",-3.12229991,-60.01462173
"Universidad de La Frontera, Chile",-39.11048126,-71.45492554
"Institute for Information Transmission Problems, Russian Academy of Sciences, Russia",61.66702652,99.09856415
"Tongji University, China",31.28269958,121.50659943
"Zhejiang Normal University, China",29.13730049,119.64099884
"Insper Instituto de Ensino e Pesquisa, Brazil",-23.59851646,-46.67660141
"Université Le Havre Normandie, France",49.49583054,0.12943999
"African University of Science and Technology, Nigeria",9.60003567,7.99997187
"Guangdong University of Technology, China",22.69839287,114.40105438
"National Institute of Technology Karnataka, Surathkal, India",12.99464417,74.79827118
"King Mongkut's University of Technology North Bangkok, Thailand",13.75395775,100.50224304
"South Dakota State University, United States",44.2926178,-96.78837585
"Universidade Federal do Rio Grande do Norte, Brazil",-30.03355217,-51.21983337
"Shantou University, China",36.55937195,103.7533493
"Burgas Free University, Bulgaria",42.49767685,27.47002602
"Beijing University of Technology, China",22.69839287,114.40105438
"Yakın Doğu Üniversitesi, None",39.87670517,32.88240433
"Southwest University, China",29.81389999,106.41290283
"Uniwersytet Opolski, Poland",50.66889191,17.92583084
"Bharathidasan University, India",10.675951,78.74245453
"Université Tahar Moulay de Saida, Algeria",34.83020782,0.1502692
"University of Glamorgan, United Kingdom",51.4884068,-3.1774692
"Yildiz Technical University, Turkey",41.05209732,29.01070023
"Institut National des Sciences Appliquées de Rouen, France",49.3867569,1.06875002
"Ege Üniversitesi, Turkey",38.45704269,27.22801208
"Université Cheikh Anta Diop, Senegal",14.68699932,-17.46404648
"Shandong Jiaotong University, China",31.02544022,121.43630219
"Universidad Publica de Navarra, Spain",42.79912567,-1.63567901
"Università degli Studi di Messina, Italy",38.19982147,15.55604744
"Jamia Millia Islamia, India",28.56432152,77.27882385
"University of Kashmir, India",34.1325531,74.8374939
"International Islamic University Malaysia, Malaysia",3.25311089,101.73613739
"Ball State University, United States",40.20324326,-85.40898132
"Kharkiv National University of Radioelectronics, Ukraine",49.98594666,36.2735405
"Max Planck Institute for Biology, Germany",51.09198761,10.38080883
"Government College University Lahore (GCUL), Pakistan",31.57320023,74.30789948
"Technische Universität Clausthal, Germany",51.80472183,10.33444023
"Universitetet i Agder, Norway",58.16318893,8.00322342
"Università degli Studi della Campania ""Luigi Vanvitelli"", Italy",40.84396362,14.23136806
"Kishinev State University, Moldova",47.01831818,28.82403183
"Université Mustapha Stambouli de Mascara, Algeria",35.39408112,0.1379568
"Universiti Pendidikan Sultan Idris, Malaysia",3.68542004,101.52458191
"Kanpur University, India",26.49830055,80.26580048
"Marien Ngouabi University, Congo-Brazzaville",-4.2770257,15.24814034
"Max Planck Institute for Physics, Germany",51.09198761,10.38080883
"University of Jammu, India",32.7184639,74.86935425
"Universidade do Estado do Rio de Janeiro, Brazil",-22.28675461,-42.54197693
"University of Massachusetts Lowell, United States",42.6454277,-71.30740356
"University of Bedfordshire, United Kingdom",51.87757111,-0.40875441
"Lahore University of Management Sciences, Pakistan",31.56191826,74.34807587
"Hochschule für Architektur und Bauwesen Weimar, Germany",50.98133469,11.32200432
"Koneru Lakshmaiah Education Foundation, India",22.35250854,79.36368561
"University of Agriculture, Makurdi, Nigeria",7.73126364,8.53842545
"Universidad Autònoma de San Luis Potosì , Mexico",22.58546638,-100.41651154
"Universidad Autónoma Metropolitana-Cuajimalpa, Mexico",25.4447888,-101.0055151
"Chapman University, United States",33.79437637,-117.8511734
"Université de Limoges, France",45.82640076,1.25829995
"Tokyo Metropolitan University, Japan",35.6166687,139.37722778
"Khon Kaen University, Thailand",16.47032928,102.8159256
"Marmara Üniversitesi, Turkey",40.98609924,29.05360031
"Université de la Méditerranée, France",43.33472061,3.26610994
"Alfred University, United States",42.25627136,-77.78627777
"Idaho State University, United States",42.8629837,-112.42902374
"Indian Institute of Technology Bhilai, India",21.18266106,81.37966919
"Dublin City University, Ireland",53.34938049,-6.26055908
"Université Cadi Ayyad, Morocco",30.37092209,-9.54330921
"Botswana International University of Science & Technology, Botswana",-23.16817856,24.59287453
"Mississippi State University, United States",33.45643997,-88.79550171
"Addis Ababa University, Ethiopia",9.04641819,38.75883865
"Universidade Federal Fluminense, Brazil",-22.89824486,-43.13266754
"Montanuniversität Leoben, Austria",47.37983322,15.0953722
"Oakland University, United States",42.67271423,-83.2094574
"Université Assane Seck Ziguinchor, Senegal",12.56349277,-16.27246094
"Institute of Mathematics of Academy Sciences of Uzbekistan, Uzbekistan",40.3280983,70.85655975
"Harbin Engineering University, China",45.77576065,126.66841125
"Universidad Michoacana de San Nicolás de Hidalgo, Mexico",20.47955894,-98.88706207
"University of Puerto Rico at Mayaguez, United States",39.50357056,-99.01832581
"Hong Kong Baptist University, China",22.33889008,114.18193817
"University of Arkansas at Little Rock, United States",34.72423935,-92.33894348
"Institute of Mathematics and Informatics, Bulgarian Academy of Sciences, Bulgaria",42.75815964,25.23507118
"University of Tizi-Ouzou, Algeria",36.71378326,4.04939175
"Uniwersytet Gdański, Poland",54.39668655,18.57357788
"Universiteit Franeker - Università di Padova, Netherlands-Italy",52.24563217,5.62691784
"Universiti Tunku Abdul Rahman, Malaysia",4.33732033,101.14420319
"Pusan National University, South Korea",35.23397827,129.07931519
"IMT Atlantique, France",46.62480927,2.45837402
"Fachhochschule Zittau, Germany",50.89886093,14.80928993
"Università degli Studi di Trieste, Italy",45.65910339,13.79464436
"Saint Louis University, United States",38.6354332,-90.23322296
"Bilecik Şeyh Edebali Üniversitesi, Turkey",40.01610184,30.18129921
"Université Mohammed I, Oujda, Morocco",34.67787552,-1.92930603
"De La Salle University, Philippines",14.56393147,120.9942627
"Chungbuk National University, South Korea",36.62900162,127.45700073
"Urmia University, Iran",37.52890015,45.04876709
"Università degli Studi di Ferrara, Italy",44.83326721,11.62754822
"National University of Uzbekistan, Uzbekistan",40.3280983,70.85655975
"Baltic State Technical University, Russia",59.91640091,30.31669998
"University of Texas MD Anderson Cancer Center, United States",29.70799828,-95.39752197
"Universität Breslau, Germany",51.11054993,17.02555847
"University of Kinshasa, DemocraticRepublicOfTheCongo",-4.42067146,15.30993462
"Universidad de Panamá, Panama",8.98388958,-79.53333282
"Universidade Federal de Uberlândia, Brazil",-18.91837311,-48.25797272
"Jeju National University, South Korea",33.45582962,126.56194305
"University of Alabama in Huntsville, United States",34.73493325,-86.62809595
"Albert Einstein College of Medicine, United States",37.43444061,-122.17610931
"Indian Statistical Institute, Bangalore, India",12.97674656,77.57527924
"University of Qom, Iran",34.59532928,50.82982635
"Pontificia Universidad Católica del Perú, Peru",-12.06935787,-77.08013916
"Bülent Ecevit Üniversitesi, Turkey",41.45140076,31.76300049
"Karadeniz Technical University, Turkey",40.99560928,39.77113342
"Universidad Simón Bolívar, Venezuela",8.36757088,-62.66330719
"American University of Beirut, Lebanon",33.90049362,35.48190308
"University of Karachi, Pakistan",24.94000053,67.12000275
"Technical University of Warsaw, Poland",52.22124481,21.00768089
"Universidad Politécnica de Cartagena, Spain",37.60541916,-0.97938502
"Bursa Uludag University, Turkey",40.22233582,28.86952209
"Moscow State Institute of Electronics and Mathematics, Russia",61.66702652,99.09856415
"Moscow Institute of Electronics and Mathematics, Russia",61.66702652,99.09856415
"Tver State University, Russia",40.85780705,-74.20994475
"Benemérita Universidad Autónoma de Puebla, Mexico",18.9998455,-98.20007324
"Bennett University, India",28.45065117,77.58200836
"Mansoura University, Egypt",31.04130745,31.35652351
"Özyeğin University, Turkey",38.98909378,35.43323517
"Politechnika Łódzka, Poland",51.75305939,19.45000076
"University of Technology, Sydney, Australia",-33.90242004,151.20779419
" Vietnam Institue of Mathematics, Vietnam",13.4233942,108.25662231
"Chelyabinsk State University, Russia",55.17722321,61.31955719
" Waterford Institute of Technology, Ireland",52.25371138,-7.1792178
"Polska Akademia Nauk, Poland",52.12467194,19.40042686
"Inter-University Centre for Astronomy and Astrophysics, India",22.35250854,79.36368561
"Indian Institute of Technology Jammu, India",32.70531845,74.88000488
"Barry University, United States",25.87894821,-80.19937134
"École Nationale d'Ingénieurs de Tunis, Tunisia",36.80020523,10.18577576
"University of the Philippines Open University, Philippines",15.94740677,121.42166901
"Universidad de Talca, Chile",-35.40525436,-71.63400269
"École nationale des sciences appliquées d'Agadir, Morocco",30.42051697,-9.58385277
"Universidad Centroccidental Lisandro Alvarado, Venezuela",8.00187111,-66.1109314
"Indian Institute of Engineering Science and Technology, India",22.35250854,79.36368561
"Soochow University, China",31.31082916,120.63555908
"Guizhou Normal University, China",25.02614021,121.5276413
"Islamic University of Gaza, Palestine",31.51368713,34.43999863
"Adventist University of the Philippines, Philippines",15.94740677,121.42166901
"Universidad CEU Cardenal Herrera, Spain",39.54999924,-0.38778001
"Université de Technologie de Troyes, France",48.26919937,4.06673002
"Universidad Católica del Maule, Chile",-35.43550491,-71.6195755
"University of Peshawar, Pakistan",34.00830078,71.48770142
"Islamia University of Bahawalpur, Pakistan",29.38997459,71.67499542
"Universidad de Cádiz, Spain",36.53383636,-6.30419397
"Louisiana Tech University, United States",32.52997589,-92.64835358
"Gauhati University, India",26.15369987,91.66339874
"Université Toulouse-Jean Jaurès, France",43.57849503,1.40144324
"Univerzita Mateja Bela, Slovakia",48.73310089,19.14550018
"South China University of Technology, China",22.69839287,114.40105438
"Université de Haute-Alsace, France",48.33345795,7.43678951
"Karnatak University, India",15.45318317,75.00093079
"SUNY Downstate Health Sciences University, United States",40.65539932,-73.9457016
"Universidad de Oviedo, Spain",43.54088974,-5.66199112
"Allahabad University, India",25.46084023,81.85083771
"École normale supérieure de Rennes, France",48.04570007,-1.74559999
"Central University of Punjab, India",30.75799561,76.76821136
"Ahmadu Bello University, Nigeria",6.33499718,-75.55826569
"Hokkaido University, Japan",43.07468796,141.34083557
"National Institute of Technology, Kurukshetra, India",29.96571732,76.83700562
